~Version Information Block
VERS .                 2.00:  CWLS LOG ASCII STANDARD - VERSION 2.00
WRAP .                   NO:  One line per depth step
~Well Information Block
#MNEM.UNIT        Data Type   Information
#---------- ----------------  -----------
STRT .M          1000.00000:  START DEPTH
STOP .M          3000.00000:  STOP DEPTH
STEP .M             0.15240:  STEP
NULL .              -999.25:  NULL VALUE
COMP .                     :  COMPANY
WELL .        WAR          :  WELL
FLD  .                     :  FIELD
LOC  .                     :  LOCATION
CTRY .                     :  COUNTRY
STAT .                     :  STATE
CNTY .                     :  COUNTY
SRVC .                     :  SERVICE COMPANY
DATE .                     :  DATE
API  .                     :  API NUMBER
UWI  .                     :  UNIQUE WELL ID
~Curve Information Block
#MNEM.UNIT         API CODE   Curve Description
#---------- ----------------  -----------------
DEPTH.M                    :  
BIT  .IN                   :  merged BS
DTS  .US/F                 :  DTSM_F(deeper) and DTSM merged
~Parameter Information Block
#MNEM.UNIT            Value   Description
#---------- ----------------  -----------
PROJECT.     Testgas@hotcepns02:  
SET  .          SPLICEDLOGS:  
~Other Information Block
# 
~A       DEPTH            BIT            DTS 
# ...
    2709.06220         8.5000       124.9003
    2709.21460         8.5000       124.5543
    2709.36700         8.5000       124.3906
    2709.51940         8.5000       124.3384
    2709.67180         8.5000       124.3800
    2709.82420         8.5000       123.9798
    2709.97660         8.5000       123.2601
    2710.12900         8.5000       122.4029
    2710.28140         8.5000       121.5195
    2710.43380         8.5000       120.6416
    2710.58620         8.5000       119.9588
    2710.73860         8.5000       119.8528
    2710.89100         8.5000       120.2057
    2711.04340         8.5000       120.8189
    2711.19580         8.5000       121.2335
    2711.34820         8.5000       121.1757
    2711.50060         8.5000       121.0417
    2711.65300         8.5000       121.5205
    2711.80540         8.5000       122.2938
    2711.95780         8.5000       122.6988
    2712.11020         8.5000       122.3632
    2712.26260         8.5000       121.1060
    2712.41500         8.5000       120.7892
    2712.56740         8.5000       120.9719
    2712.71980         8.5000       121.3551
    2712.87220         8.5000       121.3952
    2713.02460         8.5000       121.0531
    2713.17700         8.5000       120.4048
    2713.32940         8.5000       119.6608
    2713.48180         8.5000       119.5181
    2713.63420         8.5000       120.1949
    2713.78660         8.5000       121.7233
    2713.93900         8.5000       123.5527
    2714.09140         8.5000       124.3292
    2714.24380         8.5000       125.1938
    2714.39620         8.5000       125.4533
    2714.54860         8.5000       125.6474
    2714.70100         8.5000       126.2185
    2714.85340         8.5000       126.6164
    2715.00580         8.5000       127.5756
    2715.15820         8.5000       128.1838
    2715.31060         8.5000       128.3625
    2715.46300         8.5000       128.0698
    2715.61540         8.5000       127.5347
    2715.76780         8.5000       127.1834
    2715.92020         8.5000       127.3159
    2716.07260         8.5000       127.3419
    2716.22500         8.5000       127.0728
    2716.37740         8.5000       126.0441
    2716.52980         8.5000       125.0038
    2716.68220         8.5000       124.2022
    2716.83460         8.5000       123.8387
    2716.98700         8.5000       124.0069
    2717.13940         8.5000       124.0247
    2717.29180         8.5000       124.0771
    2717.44420         8.5000       124.1678
    2717.59660         8.5000       124.3960
    2717.74900         8.5000       124.7459
    2717.90140         8.5000       125.0882
    2718.05380         8.5000       124.8898
    2718.20620         8.5000       124.8676
    2718.35860         8.5000       124.8686
    2718.51100         8.5000       124.8289
    2718.66340         8.5000       124.7724
    2718.81580         8.5000       124.9717
    2718.96820         8.5000       124.5590
    2719.12060         8.5000       124.3862
    2719.27300         8.5000       123.9791
    2719.42540         8.5000       124.3423
    2719.57780         8.5000       125.0956
    2719.73020         8.5000       125.3863
    2719.88260         8.5000       125.2284
    2720.03500         8.5000       124.8007
    2720.18740         8.5000       124.7839
    2720.33980         8.5000       124.7217
    2720.49220         8.5000       124.6500
    2720.64460         8.5000       124.7524
    2720.79700         8.5000       125.0741
    2720.94940         8.5000       125.3963
    2721.10180         8.5000       125.4365
    2721.25420         8.5000       125.2019
    2721.40660         8.5000       125.0119
    2721.55900         8.5000       124.6275
    2721.71140         8.5000       124.6268
    2721.86380         8.5000       124.8381
    2722.01620         8.5000       125.0879
    2722.16860         8.5000       124.7863
    2722.32100         8.5000       124.1974
    2722.47340         8.5000       123.8438
    2722.62580         8.5000       123.8034
    2722.77820         8.5000       123.9780
    2722.93060         8.5000       124.2209
    2723.08300         8.5000       123.9666
    2723.23540         8.5000       123.6215
    2723.38780         8.5000       123.3236
    2723.54020         8.5000       123.2321
    2723.69260         8.5000       123.5940
    2723.84500         8.5000       124.2251
    2723.99740         8.5000       124.7997
    2724.14980         8.5000       125.4366
    2724.30220         8.5000       125.7571
    2724.45460         8.5000       125.7190
    2724.60700         8.5000       125.8404
    2724.75940         8.5000       126.0525
    2724.91180         8.5000       125.8642
    2725.06420         8.5000       125.2858
    2725.21660         8.5000       124.4659
    2725.36900         8.5000       123.5239
    2725.52140         8.5000       122.9162
    2725.67380         8.5000       122.4448
    2725.82620         8.5000       122.4074
    2725.97860         8.5000       122.6331
    2726.13100         8.5000       122.9403
    2726.28340         8.5000       123.2031
    2726.43580         8.5000       123.3552
    2726.58820         8.5000       123.3209
    2726.74060         8.5000       123.3818
    2726.89300         8.5000       123.5052
    2727.04540         8.5000       123.5262
    2727.19780         8.5000       123.1482
    2727.35020         8.5000       123.0342
    2727.50260         8.5000       123.2239
    2727.65500         8.5000       123.7126
    2727.80740         8.5000       124.3478
    2727.95980         8.5000       124.8295
    2728.11220         8.5000       125.4510
    2728.26460         8.5000       125.6222
    2728.41700         8.5000       125.7079
    2728.56940         8.5000       125.8253
    2728.72180         8.5000       125.8430
    2728.87420         8.5000       126.6382
    2729.02660         8.5000       127.6097
    2729.17900         8.5000       127.2837
    2729.33140         8.5000       125.5213
    2729.48380         8.5000       123.8164
    2729.63620         8.5000       123.1501
    2729.78860         8.5000       122.3775
    2729.94100         8.5000       121.8337
    2730.09340         8.5000       121.6034
    2730.24580         8.5000       121.5198
    2730.39820         8.5000       120.9912
    2730.55060         8.5000       119.9759
    2730.70300         8.5000       118.5715
    2730.85540         8.5000       117.0911
    2731.00780         8.5000       116.0490
    2731.16020         8.5000       115.6452
    2731.31260         8.5000       115.5352
    2731.46500         8.5000       116.1084
    2731.61740         8.5000       117.3639
    2731.76980         8.5000       118.6050
    2731.92220         8.5000       119.3199
    2732.07460         8.5000       119.4615
    2732.22700         8.5000       119.6038
    2732.37940         8.5000       119.8332
    2732.53180         8.5000       119.9231
    2732.68420         8.5000       120.1169
    2732.83660         8.5000       120.0995
    2732.98900         8.5000       119.8681
    2733.14140         8.5000       119.1090
    2733.29380         8.5000       119.4679
    2733.44620         8.5000       120.7989
    2733.59860         8.5000       121.9206
    2733.75100         8.5000       122.9651
    2733.90340         8.5000       123.7870
    2734.05580         8.5000       123.6676
    2734.20820         8.5000       123.2505
    2734.36060         8.5000       122.8928
    2734.51300         8.5000       122.7235
    2734.66540         8.5000       122.7963
    2734.81780         8.5000       123.1354
    2734.97020         8.5000       123.7199
    2735.12260         8.5000       124.4863
    2735.27500         8.5000       125.3975
    2735.42740         8.5000       125.6456
    2735.57980         8.5000       125.4151
    2735.73220         8.5000       124.8064
    2735.88460         8.5000       123.8350
    2736.03700         8.5000       123.2345
