~Version Information Block
VERS .                 2.00:  CWLS LOG ASCII STANDARD - VERSION 2.00
WRAP .                   NO:  One line per depth step
~Well Information Block
#MNEM.UNIT        Data Type   Information
#---------- ----------------  -----------
STRT .M          1000.00000:  START DEPTH
STOP .M          3000.00000:  STOP DEPTH
STEP .M             0.15240:  STEP
NULL .              -999.25:  NULL VALUE
COMP .                     :  COMPANY
WELL .        WAR          :  WELL
FLD  .                     :  FIELD
LOC  .                     :  LOCATION
CTRY .                     :  COUNTRY
STAT .                     :  STATE
CNTY .                     :  COUNTY
SRVC .                     :  SERVICE COMPANY
DATE .                     :  DATE
API  .                     :  API NUMBER
UWI  .                     :  UNIQUE WELL ID
~Curve Information Block
#MNEM.UNIT         API CODE   Curve Description
#---------- ----------------  -----------------
DEPTH.M                    :  
BIT  .IN                   :  merged BS
DTS  .US/F                 :  DTSM_F(deeper) and DTSM merged
~Parameter Information Block
#MNEM.UNIT            Value   Description
#---------- ----------------  -----------
PROJECT.     Testgas@hotcepns02:  
SET  .          SPLICEDLOGS:  
~Other Information Block
# 
~A       DEPTH            BIT            DTS 
# ...
    2464.91740         8.5000       126.8974
    2465.06980         8.5000       126.6929
    2465.22220         8.5000       124.8104
    2465.37460         8.5000       123.3851
    2465.52700         8.5000       124.1800
    2465.67940         8.5000       123.7607
    2465.83180         8.5000       124.4728
    2465.98420         8.5000       125.2670
    2466.13660         8.5000       126.0766
    2466.28900         8.5000       126.3116
    2466.44140         8.5000       125.5665
    2466.59380         8.5000       125.9570
    2466.74620         8.5000       124.3130
    2466.89860         8.5000       125.6883
    2467.05100         8.5000       125.2391
    2467.20340         8.5000       125.2142
    2467.35580         8.5000       126.1004
    2467.50820         8.5000       125.8582
    2467.66060         8.5000       127.0445
    2467.81300         8.5000       127.1416
    2467.96540         8.5000       128.4129
    2468.11780         8.5000       128.6346
    2468.27020         8.5000       129.0039
    2468.42260         8.5000       128.3870
    2468.57500         8.5000       129.7310
    2468.72740         8.5000       130.9712
    2468.87980         8.5000       129.7440
    2469.03220         8.5000       128.9345
    2469.18460         8.5000       126.4433
    2469.33700         8.5000       125.4290
    2469.48940         8.5000       124.1730
    2469.64180         8.5000       124.7363
    2469.79420         8.5000       126.5979
    2469.94660         8.5000       128.4884
    2470.09900         8.5000       129.3563
    2470.25140         8.5000       129.5031
    2470.40380         8.5000       128.5280
    2470.55620         8.5000       126.6958
    2470.70860         8.5000       126.9564
    2470.86100         8.5000       127.0288
    2471.01340         8.5000       127.1675
    2471.16580         8.5000       127.2678
    2471.31820         8.5000       125.7395
    2471.47060         8.5000       125.7692
    2471.62300         8.5000       125.4312
    2471.77540         8.5000       126.3760
    2471.92780         8.5000       126.3967
    2472.08020         8.5000       127.0453
    2472.23260         8.5000       127.2490
    2472.38500         8.5000       127.1346
    2472.53740         8.5000       127.3340
    2472.68980         8.5000       127.2261
    2472.84220         8.5000       125.9805
    2472.99460         8.5000       125.8861
    2473.14700         8.5000       125.2803
    2473.29940         8.5000       125.2331
    2473.45180         8.5000       124.9233
    2473.60420         8.5000       122.6367
    2473.75660         8.5000       121.6255
    2473.90900         8.5000       118.5896
    2474.06140         8.5000       116.9865
    2474.21380         8.5000       117.6164
    2474.36620         8.5000       117.1313
    2474.51860         8.5000       117.9244
    2474.67100         8.5000       116.7923
    2474.82340         8.5000       115.0007
    2474.97580         8.5000       114.2868
    2475.12820         8.5000       112.8744
    2475.28060         8.5000       113.8876
    2475.43300         8.5000       115.1140
    2475.58540         8.5000       115.3363
    2475.73780         8.5000       116.6567
    2475.89020         8.5000       118.1172
    2476.04260         8.5000       120.8045
    2476.19500         8.5000       123.7528
    2476.34740         8.5000       123.9735
    2476.49980         8.5000       123.1091
    2476.65220         8.5000       121.9718
    2476.80460         8.5000       118.5516
    2476.95700         8.5000       113.8565
    2477.10940         8.5000       112.4497
    2477.26180         8.5000       110.4276
    2477.41420         8.5000       110.8200
    2477.56660         8.5000       113.1829
    2477.71900         8.5000       112.9240
    2477.87140         8.5000       115.0669
    2478.02380         8.5000       114.7307
    2478.17620         8.5000       112.8088
    2478.32860         8.5000       113.7060
    2478.48100         8.5000       111.5836
    2478.63340         8.5000       113.3463
    2478.78580         8.5000       114.4643
    2478.93820         8.5000       113.3241
    2479.09060         8.5000       114.7979
    2479.24300         8.5000       115.9423
    2479.39540         8.5000       121.7714
    2479.54780         8.5000       124.6354
    2479.70020         8.5000       125.2112
    2479.85260         8.5000       125.2757
    2480.00500         8.5000       120.5566
    2480.15740         8.5000       118.1614
    2480.30980         8.5000       116.5073
    2480.46220         8.5000       116.2591
    2480.61460         8.5000       119.4854
    2480.76700         8.5000       120.6924
    2480.91940         8.5000       121.4791
    2481.07180         8.5000       122.3975
    2481.22420         8.5000       121.8245
    2481.37660         8.5000       121.2466
    2481.52900         8.5000       121.3163
    2481.68140         8.5000       115.5408
    2481.83380         8.5000       113.2326
    2481.98620         8.5000       112.2845
    2482.13860         8.5000       109.1536
    2482.29100         8.5000       111.5573
    2482.44340         8.5000       112.7095
    2482.59580         8.5000       115.0901
    2482.74820         8.5000       119.0984
    2482.90060         8.5000       121.9175
    2483.05300         8.5000       125.8514
    2483.20540         8.5000       125.8348
    2483.35780         8.5000       126.0590
    2483.51020         8.5000       126.1441
    2483.66260         8.5000       124.1792
    2483.81500         8.5000       125.5636
    2483.96740         8.5000       124.6283
    2484.11980         8.5000       126.9189
    2484.27220         8.5000       129.4880
    2484.42460         8.5000       126.5365
    2484.57700         8.5000       128.6037
    2484.72940         8.5000       124.2699
    2484.88180         8.5000       123.2575
    2485.03420         8.5000       122.3933
    2485.18660         8.5000       118.0349
    2485.33900         8.5000       119.6043
    2485.49140         8.5000       120.4812
    2485.64380         8.5000       122.3029
    2485.79620         8.5000       122.4949
    2485.94860         8.5000       119.4109
    2486.10100         8.5000       121.5045
    2486.25340         8.5000       121.1400
    2486.40580         8.5000       118.6965
    2486.55820         8.5000       118.0803
    2486.71060         8.5000       117.1850
    2486.86300         8.5000       116.0441
    2487.01540         8.5000       116.2312
    2487.16780         8.5000       116.1109
    2487.32020         8.5000       116.8032
    2487.47260         8.5000       117.9416
    2487.62500         8.5000       118.2949
    2487.77740         8.5000       121.4467
    2487.92980         8.5000       118.0560
    2488.08220         8.5000       117.1096
    2488.23460         8.5000       116.3732
    2488.38700         8.5000       113.5592
    2488.53940         8.5000       114.7318
    2488.69180         8.5000       114.1554
    2488.84420         8.5000       113.0270
    2488.99660         8.5000       114.9189
    2489.14900         8.5000       114.8125
    2489.30140         8.5000       116.6348
    2489.45380         8.5000       118.4231
    2489.60620         8.5000       117.9964
    2489.75860         8.5000       118.9851
    2489.91100         8.5000       120.5726
    2490.06340         8.5000       122.4869
    2490.21580         8.5000       122.7168
    2490.36820         8.5000       123.0318
    2490.52060         8.5000       121.5722
    2490.67300         8.5000       119.1296
    2490.82540         8.5000       120.9260
    2490.97780         8.5000       118.9143
    2491.13020         8.5000       119.4834
    2491.28260         8.5000       119.2304
    2491.43500         8.5000       118.5310
    2491.58740         8.5000       119.1639
    2491.73980         8.5000       118.6444
    2491.89220         8.5000       117.7693
