~Version Information Block
VERS .                 2.00:  CWLS LOG ASCII STANDARD - VERSION 2.00
WRAP .                   NO:  One line per depth step
~Well Information Block
#MNEM.UNIT        Data Type   Information
#---------- ----------------  -----------
STRT .M          1000.00000:  START DEPTH
STOP .M          3000.00000:  STOP DEPTH
STEP .M             0.15240:  STEP
NULL .              -999.25:  NULL VALUE
COMP .                     :  COMPANY
WELL .        WAR          :  WELL
FLD  .                     :  FIELD
LOC  .                     :  LOCATION
CTRY .                     :  COUNTRY
STAT .                     :  STATE
CNTY .                     :  COUNTY
SRVC .                     :  SERVICE COMPANY
DATE .                     :  DATE
API  .                     :  API NUMBER
UWI  .                     :  UNIQUE WELL ID
~Curve Information Block
#MNEM.UNIT         API CODE   Curve Description
#---------- ----------------  -----------------
DEPTH.M                    :  
BIT  .IN                   :  merged BS
DTS  .US/F                 :  DTSM_F(deeper) and DTSM merged
~Parameter Information Block
#MNEM.UNIT            Value   Description
#---------- ----------------  -----------
PROJECT.     Testgas@hotcepns02:  
SET  .          SPLICEDLOGS:  
~Other Information Block
# 
~A       DEPTH            BIT            DTS 
# ...
    1922.37340         8.5000       154.1124
    1922.52580         8.5000       153.7905
    1922.67820         8.5000       152.0741
    1922.83060         8.5000       150.7634
    1922.98300         8.5000       148.9745
    1923.13540         8.5000       148.1583
    1923.28780         8.5000       142.4526
    1923.44020         8.5000       140.1985
    1923.59260         8.5000       138.1415
    1923.74500         8.5000       137.8520
    1923.89740         8.5000       142.5762
    1924.04980         8.5000       145.9877
    1924.20220         8.5000       140.8896
    1924.35460         8.5000       137.4686
    1924.50700         8.5000       130.7137
    1924.65940         8.5000       127.9877
    1924.81180         8.5000       133.3025
    1924.96420         8.5000       135.5143
    1925.11660         8.5000       136.7125
    1925.26900         8.5000       137.9523
    1925.42140         8.5000       136.9635
    1925.57380         8.5000       139.5738
    1925.72620         8.5000       145.5448
    1925.87860         8.5000       141.5264
    1926.03100         8.5000       144.4479
    1926.18340         8.5000       138.3176
    1926.33580         8.5000       136.5170
    1926.48820         8.5000       136.1871
    1926.64060         8.5000       129.9631
    1926.79300         8.5000       130.1980
    1926.94540         8.5000       129.0544
    1927.09780         8.5000       125.2028
    1927.25020         8.5000       127.2492
    1927.40260         8.5000       130.0395
    1927.55500         8.5000       131.4328
    1927.70740         8.5000       136.1647
    1927.85980         8.5000       137.8695
    1928.01220         8.5000       140.2294
    1928.16460         8.5000       143.2110
    1928.31700         8.5000       142.2491
    1928.46940         8.5000       140.9158
    1928.62180         8.5000       139.0634
    1928.77420         8.5000       140.0680
    1928.92660         8.5000       140.7000
    1929.07900         8.5000       143.0299
    1929.23140         8.5000       146.7840
    1929.38380         8.5000       150.1232
    1929.53620         8.5000       152.2703
    1929.68860         8.5000       149.3282
    1929.84100         8.5000       145.8547
    1929.99340         8.5000       140.1822
    1930.14580         8.5000       137.1736
    1930.29820         8.5000       136.8921
    1930.45060         8.5000       134.6001
    1930.60300         8.5000       134.0979
    1930.75540         8.5000       135.2441
    1930.90780         8.5000       135.5257
    1931.06020         8.5000       136.8792
    1931.21260         8.5000       138.7265
    1931.36500         8.5000       137.7130
    1931.51740         8.5000       136.1157
    1931.66980         8.5000       131.2744
    1931.82220         8.5000       129.0314
    1931.97460         8.5000       129.1926
    1932.12700         8.5000       130.7381
    1932.27940         8.5000       133.1393
    1932.43180         8.5000       137.8094
    1932.58420         8.5000       138.7855
    1932.73660         8.5000       141.6961
    1932.88900         8.5000       140.5309
    1933.04140         8.5000       140.9553
    1933.19380         8.5000       137.0320
    1933.34620         8.5000       137.1526
    1933.49860         8.5000       137.5507
    1933.65100         8.5000       138.0032
    1933.80340         8.5000       141.2311
    1933.95580         8.5000       141.9006
    1934.10820         8.5000       142.6948
    1934.26060         8.5000       142.7950
    1934.41300         8.5000       141.3101
    1934.56540         8.5000       141.1842
    1934.71780         8.5000       141.4594
    1934.87020         8.5000       144.6932
    1935.02260         8.5000       144.6514
    1935.17500         8.5000       143.3659
    1935.32740         8.5000       142.8694
    1935.47980         8.5000       140.9798
    1935.63220         8.5000       142.6301
    1935.78460         8.5000       145.6250
    1935.93700         8.5000       147.9303
    1936.08940         8.5000       149.0157
    1936.24180         8.5000       145.4548
    1936.39420         8.5000       147.7504
    1936.54660         8.5000       146.1267
    1936.69900         8.5000       148.2340
    1936.85140         8.5000       150.5337
    1937.00380         8.5000       148.6791
    1937.15620         8.5000       149.8281
    1937.30860         8.5000       149.2180
    1937.46100         8.5000       150.5494
    1937.61340         8.5000       153.5635
    1937.76580         8.5000       154.3859
    1937.91820         8.5000       155.5137
    1938.07060         8.5000       154.1225
    1938.22300         8.5000       154.9183
    1938.37540         8.5000       153.8977
    1938.52780         8.5000       153.5382
    1938.68020         8.5000       161.6917
    1938.83260         8.5000       164.9541
    1938.98500         8.5000       165.4738
    1939.13740         8.5000       163.6848
    1939.28980         8.5000       154.0889
    1939.44220         8.5000       155.8378
    1939.59460         8.5000       159.3648
    1939.74700         8.5000       160.0680
    1939.89940         8.5000       159.0051
    1940.05180         8.5000       151.1368
    1940.20420         8.5000       145.0021
    1940.35660         8.5000       137.7559
    1940.50900         8.5000       133.6698
    1940.66140         8.5000       137.5407
    1940.81380         8.5000       148.7473
    1940.96620         8.5000       159.8839
    1941.11860         8.5000       160.5064
    1941.27100         8.5000       152.5510
    1941.42340         8.5000       148.6439
    1941.57580         8.5000       145.8329
    1941.72820         8.5000       148.7642
    1941.88060         8.5000       148.5498
    1942.03300         8.5000       147.5607
    1942.18540         8.5000       141.4017
    1942.33780         8.5000       136.3620
    1942.49020         8.5000       136.8907
    1942.64260         8.5000       136.6473
    1942.79500         8.5000       138.6636
    1942.94740         8.5000       135.9636
    1943.09980         8.5000       130.4141
    1943.25220         8.5000       129.5212
    1943.40460         8.5000       129.5775
    1943.55700         8.5000       138.3366
    1943.70940         8.5000       148.1082
    1943.86180         8.5000       153.4557
    1944.01420         8.5000       157.7843
    1944.16660         8.5000       152.3336
    1944.31900         8.5000       152.2000
    1944.47140         8.5000       152.2073
    1944.62380         8.5000       154.1522
    1944.77620         8.5000       154.8991
    1944.92860         8.5000       158.3019
    1945.08100         8.5000       156.5965
    1945.23340         8.5000       158.5049
    1945.38580         8.5000       158.5259
    1945.53820         8.5000       159.8841
    1945.69060         8.5000       162.1201
    1945.84300         8.5000       161.7219
    1945.99540         8.5000       162.7293
    1946.14780         8.5000       160.6264
    1946.30020         8.5000       160.0715
    1946.45260         8.5000       159.7320
    1946.60500         8.5000       160.0126
    1946.75740         8.5000       158.2205
    1946.90980         8.5000       154.5206
    1947.06220         8.5000       154.2676
    1947.21460         8.5000       152.4951
    1947.36700         8.5000       152.6662
    1947.51940         8.5000       154.3140
    1947.67180         8.5000       153.9383
    1947.82420         8.5000       158.0122
    1947.97660         8.5000       159.7056
    1948.12900         8.5000       160.0588
    1948.28140         8.5000       159.4209
    1948.43380         8.5000       155.4427
    1948.58620         8.5000       151.9601
    1948.73860         8.5000       149.4467
    1948.89100         8.5000       149.2550
    1949.04340         8.5000       152.8905
    1949.19580         8.5000       157.1915
    1949.34820         8.5000       160.0041
