~Version Information Block
VERS .                 2.00:  CWLS LOG ASCII STANDARD - VERSION 2.00
WRAP .                   NO:  One line per depth step
~Well Information Block
#MNEM.UNIT        Data Type   Information
#---------- ----------------  -----------
STRT .M          1000.00000:  START DEPTH
STOP .M          3000.00000:  STOP DEPTH
STEP .M             0.15240:  STEP
NULL .              -999.25:  NULL VALUE
COMP .                     :  COMPANY
WELL .        WAR          :  WELL
FLD  .                     :  FIELD
LOC  .                     :  LOCATION
CTRY .                     :  COUNTRY
STAT .                     :  STATE
CNTY .                     :  COUNTY
SRVC .                     :  SERVICE COMPANY
DATE .                     :  DATE
API  .                     :  API NUMBER
UWI  .                     :  UNIQUE WELL ID
~Curve Information Block
#MNEM.UNIT         API CODE   Curve Description
#---------- ----------------  -----------------
DEPTH.M                    :  
BIT  .IN                   :  merged BS
DTS  .US/F                 :  DTSM_F(deeper) and DTSM merged
~Parameter Information Block
#MNEM.UNIT            Value   Description
#---------- ----------------  -----------
PROJECT.     Testgas@hotcepns02:  
SET  .          SPLICEDLOGS:  
~Other Information Block
# 
~A       DEPTH            BIT            DTS 
# ...
    1135.68460         8.5000       187.2327
    1135.83700         8.5000       184.1859
    1135.98940         8.5000       189.5496
    1136.14180         8.5000       195.8959
    1136.29420         8.5000       191.1358
    1136.44660         8.5000       185.3949
    1136.59900         8.5000       188.3039
    1136.75140         8.5000       193.2168
    1136.90380         8.5000       196.0846
    1137.05620         8.5000       189.2261
    1137.20860         8.5000       187.3858
    1137.36100         8.5000       187.9874
    1137.51340         8.5000       184.3474
    1137.66580         8.5000       181.4063
    1137.81820         8.5000       178.5947
    1137.97060         8.5000       182.4975
    1138.12300         8.5000       184.2943
    1138.27540         8.5000       186.2621
    1138.42780         8.5000       189.1649
    1138.58020         8.5000       188.2494
    1138.73260         8.5000       186.6538
    1138.88500         8.5000       185.9445
    1139.03740         8.5000       186.3681
    1139.18980         8.5000       188.6202
    1139.34220         8.5000       189.0167
    1139.49460         8.5000       189.4591
    1139.64700         8.5000       188.5594
    1139.79940         8.5000       186.9301
    1139.95180         8.5000       185.0145
    1140.10420         8.5000       184.0525
    1140.25660         8.5000       183.9830
    1140.40900         8.5000       181.0726
    1140.56140         8.5000       174.2686
    1140.71380         8.5000       169.6999
    1140.86620         8.5000       164.7986
    1141.01860         8.5000       165.3977
    1141.17100         8.5000       169.1159
    1141.32340         8.5000       172.1840
    1141.47580         8.5000       174.7858
    1141.62820         8.5000       176.3573
    1141.78060         8.5000       175.9930
    1141.93300         8.5000       174.4151
    1142.08540         8.5000       176.2767
    1142.23780         8.5000       186.4080
    1142.39020         8.5000       196.0172
    1142.54260         8.5000       190.0146
    1142.69500         8.5000       183.0610
    1142.84740         8.5000       178.2316
    1142.99980         8.5000       179.2090
    1143.15220         8.5000       182.9414
    1143.30460         8.5000       183.0611
    1143.45700         8.5000       179.4230
    1143.60940         8.5000       183.8891
    1143.76180         8.5000       184.0882
    1143.91420         8.5000       184.7939
    1144.06660         8.5000       186.3325
    1144.21900         8.5000       185.4337
    1144.37140         8.5000       184.1647
    1144.52380         8.5000       183.9165
    1144.67620         8.5000       184.1163
    1144.82860         8.5000       184.2561
    1144.98100         8.5000       179.0236
    1145.13340         8.5000       175.8508
    1145.28580         8.5000       172.3286
    1145.43820         8.5000       172.0279
    1145.59060         8.5000       172.2140
    1145.74300         8.5000       172.6024
    1145.89540         8.5000       171.8280
    1146.04780         8.5000       166.8178
    1146.20020         8.5000       164.6925
    1146.35260         8.5000       164.0876
    1146.50500         8.5000       161.7876
    1146.65740         8.5000       154.1912
    1146.80980         8.5000       151.1236
    1146.96220         8.5000       151.6944
    1147.11460         8.5000       154.9117
    1147.26700         8.5000       163.0732
    1147.41940         8.5000       173.9697
    1147.57180         8.5000       183.1575
    1147.72420         8.5000       184.4864
    1147.87660         8.5000       181.1667
    1148.02900         8.5000       177.2460
    1148.18140         8.5000       176.3199
    1148.33380         8.5000       177.3720
    1148.48620         8.5000       176.2698
    1148.63860         8.5000       173.7069
    1148.79100         8.5000       172.1437
    1148.94340         8.5000       174.4308
    1149.09580         8.5000       175.9214
    1149.24820         8.5000       176.3149
    1149.40060         8.5000       176.3601
    1149.55300         8.5000       171.0544
    1149.70540         8.5000       164.5058
    1149.85780         8.5000       165.4409
    1150.01020         8.5000       171.8041
    1150.16260         8.5000       173.2449
    1150.31500         8.5000       173.9619
    1150.46740         8.5000       166.8802
    1150.61980         8.5000       167.1732
    1150.77220         8.5000       172.6324
    1150.92460         8.5000       174.0908
    1151.07700         8.5000       174.7006
    1151.22940         8.5000       173.0553
    1151.38180         8.5000       174.2914
    1151.53420         8.5000       174.6979
    1151.68660         8.5000       166.4000
    1151.83900         8.5000       160.2923
    1151.99140         8.5000       163.9485
    1152.14380         8.5000       174.8593
    1152.29620         8.5000       185.4850
    1152.44860         8.5000       186.5172
    1152.60100         8.5000       184.3248
    1152.75340         8.5000       177.4746
    1152.90580         8.5000       172.1534
    1153.05820         8.5000       166.6422
    1153.21060         8.5000       167.0439
    1153.36300         8.5000       173.7419
    1153.51540         8.5000       178.2571
    1153.66780         8.5000       184.2126
    1153.82020         8.5000       184.0877
    1153.97260         8.5000       184.4936
    1154.12500         8.5000       184.4388
    1154.27740         8.5000       182.2401
    1154.42980         8.5000       181.7629
    1154.58220         8.5000       184.9164
    1154.73460         8.5000       182.3367
    1154.88700         8.5000       182.4682
    1155.03940         8.5000       175.8431
    1155.19180         8.5000       167.7907
    1155.34420         8.5000       171.6470
    1155.49660         8.5000       167.2122
    1155.64900         8.5000       166.5987
    1155.80140         8.5000       165.6767
    1155.95380         8.5000       166.4971
    1156.10620         8.5000       169.8770
    1156.25860         8.5000       173.4346
    1156.41100         8.5000       172.8268
    1156.56340         8.5000       166.1024
    1156.71580         8.5000       165.9775
    1156.86820         8.5000       172.4459
    1157.02060         8.5000       177.3078
    1157.17300         8.5000       178.3529
    1157.32540         8.5000       173.9901
    1157.47780         8.5000       170.1202
    1157.63020         8.5000       174.5556
    1157.78260         8.5000       179.1551
    1157.93500         8.5000       181.7523
    1158.08740         8.5000       177.5996
    1158.23980         8.5000       174.5086
    1158.39220         8.5000       175.3669
    1158.54460         8.5000       176.0864
    1158.69700         8.5000       177.1452
    1158.84940         8.5000       177.5548
    1159.00180         8.5000       178.5662
    1159.15420         8.5000       176.1420
    1159.30660         8.5000       173.9100
    1159.45900         8.5000       174.6212
    1159.61140         8.5000       177.0876
    1159.76380         8.5000       180.7897
    1159.91620         8.5000       181.6644
    1160.06860         8.5000       177.1583
    1160.22100         8.5000       175.7099
    1160.37340         8.5000       178.5774
    1160.52580         8.5000       182.7914
    1160.67820         8.5000       182.3104
    1160.83060         8.5000       176.3067
    1160.98300         8.5000       172.1862
    1161.13540         8.5000       176.2364
    1161.28780         8.5000       177.8357
    1161.44020         8.5000       174.8198
    1161.59260         8.5000       174.8398
    1161.74500         8.5000       177.3688
    1161.89740         8.5000       178.0783
    1162.04980         8.5000       181.3024
    1162.20220         8.5000       178.6216
    1162.35460         8.5000       177.9270
    1162.50700         8.5000       178.7758
    1162.65940         8.5000       177.4720
