~Version Information Block
VERS .                 2.00:  CWLS LOG ASCII STANDARD - VERSION 2.00
WRAP .                   NO:  One line per depth step
~Well Information Block
#MNEM.UNIT        Data Type   Information
#---------- ----------------  -----------
STRT .M          1000.00000:  START DEPTH
STOP .M          3000.00000:  STOP DEPTH
STEP .M             0.15240:  STEP
NULL .              -999.25:  NULL VALUE
COMP .                     :  COMPANY
WELL .        WAR          :  WELL
FLD  .                     :  FIELD
LOC  .                     :  LOCATION
CTRY .                     :  COUNTRY
STAT .                     :  STATE
CNTY .                     :  COUNTY
SRVC .                     :  SERVICE COMPANY
DATE .                     :  DATE
API  .                     :  API NUMBER
UWI  .                     :  UNIQUE WELL ID
~Curve Information Block
#MNEM.UNIT         API CODE   Curve Description
#---------- ----------------  -----------------
DEPTH.M                    :  
BIT  .IN                   :  merged BS
DTS  .US/F                 :  DTSM_F(deeper) and DTSM merged
~Parameter Information Block
#MNEM.UNIT            Value   Description
#---------- ----------------  -----------
PROJECT.     Testgas@hotcepns02:  
SET  .          SPLICEDLOGS:  
~Other Information Block
# 
~A       DEPTH            BIT            DTS 
# ...
    2193.64540         8.5000       140.8410
    2193.79780         8.5000       138.6525
    2193.95020         8.5000       137.2069
    2194.10260         8.5000       138.5970
    2194.25500         8.5000       138.8435
    2194.40740         8.5000       140.4658
    2194.55980         8.5000       140.4641
    2194.71220         8.5000       138.5219
    2194.86460         8.5000       137.5937
    2195.01700         8.5000       137.5560
    2195.16940         8.5000       138.3672
    2195.32180         8.5000       138.6712
    2195.47420         8.5000       137.9102
    2195.62660         8.5000       136.5787
    2195.77900         8.5000       135.1429
    2195.93140         8.5000       134.8791
    2196.08380         8.5000       132.8974
    2196.23620         8.5000       131.1716
    2196.38860         8.5000       133.6507
    2196.54100         8.5000       134.2847
    2196.69340         8.5000       134.7727
    2196.84580         8.5000       134.6024
    2196.99820         8.5000       133.7287
    2197.15060         8.5000       131.2587
    2197.30300         8.5000       131.1519
    2197.45540         8.5000       134.1440
    2197.60780         8.5000       133.3273
    2197.76020         8.5000       135.8565
    2197.91260         8.5000       135.1443
    2198.06500         8.5000       135.7775
    2198.21740         8.5000       136.5737
    2198.36980         8.5000       136.2757
    2198.52220         8.5000       136.8777
    2198.67460         8.5000       135.4768
    2198.82700         8.5000       133.1905
    2198.97940         8.5000       130.7367
    2199.13180         8.5000       130.9874
    2199.28420         8.5000       131.4306
    2199.43660         8.5000       133.0641
    2199.58900         8.5000       131.2654
    2199.74140         8.5000       130.2506
    2199.89380         8.5000       130.0035
    2200.04620         8.5000       132.6639
    2200.19860         8.5000       134.0690
    2200.35100         8.5000       133.5030
    2200.50340         8.5000       131.2066
    2200.65580         8.5000       127.7687
    2200.80820         8.5000       125.3416
    2200.96060         8.5000       124.7207
    2201.11300         8.5000       124.4952
    2201.26540         8.5000       125.0321
    2201.41780         8.5000       125.7717
    2201.57020         8.5000       125.8986
    2201.72260         8.5000       124.4070
    2201.87500         8.5000       124.0960
    2202.02740         8.5000       127.9139
    2202.17980         8.5000       128.6369
    2202.33220         8.5000       130.1421
    2202.48460         8.5000       131.4641
    2202.63700         8.5000       129.8913
    2202.78940         8.5000       131.5117
    2202.94180         8.5000       130.0112
    2203.09420         8.5000       130.3329
    2203.24660         8.5000       132.3955
    2203.39900         8.5000       130.4359
    2203.55140         8.5000       131.4954
    2203.70380         8.5000       132.4225
    2203.85620         8.5000       134.2765
    2204.00860         8.5000       135.0292
    2204.16100         8.5000       135.1295
    2204.31340         8.5000       136.0460
    2204.46580         8.5000       134.4944
    2204.61820         8.5000       134.1322
    2204.77060         8.5000       131.3342
    2204.92300         8.5000       128.7217
    2205.07540         8.5000       127.4217
    2205.22780         8.5000       125.4584
    2205.38020         8.5000       124.0065
    2205.53260         8.5000       124.7372
    2205.68500         8.5000       124.7149
    2205.83740         8.5000       124.8307
    2205.98980         8.5000       127.5609
    2206.14220         8.5000       127.1558
    2206.29460         8.5000       128.4878
    2206.44700         8.5000       130.5638
    2206.59940         8.5000       131.4594
    2206.75180         8.5000       134.1449
    2206.90420         8.5000       134.8770
    2207.05660         8.5000       135.2782
    2207.20900         8.5000       135.2187
    2207.36140         8.5000       134.6410
    2207.51380         8.5000       135.4329
    2207.66620         8.5000       135.9873
    2207.81860         8.5000       136.8228
    2207.97100         8.5000       135.1431
    2208.12340         8.5000       133.8239
    2208.27580         8.5000       130.8473
    2208.42820         8.5000       129.3071
    2208.58060         8.5000       129.7844
    2208.73300         8.5000       128.6193
    2208.88540         8.5000       128.8688
    2209.03780         8.5000       128.9909
    2209.19020         8.5000       128.3268
    2209.34260         8.5000       129.8168
    2209.49500         8.5000       133.4443
    2209.64740         8.5000       134.6755
    2209.79980         8.5000       136.5316
    2209.95220         8.5000       135.5072
    2210.10460         8.5000       129.7717
    2210.25700         8.5000       127.6201
    2210.40940         8.5000       121.9699
    2210.56180         8.5000       119.0735
    2210.71420         8.5000       123.0383
    2210.86660         8.5000       121.9494
    2211.01900         8.5000       124.4380
    2211.17140         8.5000       120.6296
    2211.32380         8.5000       120.6492
    2211.47620         8.5000       118.9931
    2211.62860         8.5000       118.7737
    2211.78100         8.5000       124.1773
    2211.93340         8.5000       121.0766
    2212.08580         8.5000       121.3759
    2212.23820         8.5000       118.9522
    2212.39060         8.5000       115.7387
    2212.54300         8.5000       117.5924
    2212.69540         8.5000       118.6577
    2212.84780         8.5000       121.2120
    2213.00020         8.5000       122.8030
    2213.15260         8.5000       123.7840
    2213.30500         8.5000       117.5529
    2213.45740         8.5000       117.2472
    2213.60980         8.5000       115.4818
    2213.76220         8.5000       114.0612
    2213.91460         8.5000       116.7275
    2214.06700         8.5000       116.9424
    2214.21940         8.5000       119.0381
    2214.37180         8.5000       121.3466
    2214.52420         8.5000       121.1800
    2214.67660         8.5000       121.9636
    2214.82900         8.5000       123.7224
    2214.98140         8.5000       124.7886
    2215.13380         8.5000       125.7126
    2215.28620         8.5000       127.9269
    2215.43860         8.5000       129.0385
    2215.59100         8.5000       134.0611
    2215.74340         8.5000       135.1728
    2215.89580         8.5000       135.9667
    2216.04820         8.5000       137.2869
    2216.20060         8.5000       134.4760
    2216.35300         8.5000       131.2890
    2216.50540         8.5000       128.6041
    2216.65780         8.5000       123.9934
    2216.81020         8.5000       115.0950
    2216.96260         8.5000       114.0917
    2217.11500         8.5000       112.7057
    2217.26740         8.5000       113.5698
    2217.41980         8.5000       121.9197
    2217.57220         8.5000       117.9965
    2217.72460         8.5000       124.1884
    2217.87700         8.5000       122.8518
    2218.02940         8.5000       115.1628
    2218.18180         8.5000       121.3945
    2218.33420         8.5000       118.2564
    2218.48660         8.5000       123.2562
    2218.63900         8.5000       126.8833
    2218.79140         8.5000       123.9729
    2218.94380         8.5000       125.5534
    2219.09620         8.5000       124.0872
    2219.24860         8.5000       127.2154
    2219.40100         8.5000       129.9052
    2219.55340         8.5000       130.9608
    2219.70580         8.5000       135.9104
    2219.85820         8.5000       134.6022
    2220.01060         8.5000       134.4194
    2220.16300         8.5000       137.6131
    2220.31540         8.5000       136.3337
    2220.46780         8.5000       135.0739
    2220.62020         8.5000       135.0245
