~Version Information Block
VERS .                 2.00:  CWLS LOG ASCII STANDARD - VERSION 2.00
WRAP .                   NO:  One line per depth step
~Well Information Block
#MNEM.UNIT        Data Type   Information
#---------- ----------------  -----------
STRT .M          1000.00000:  START DEPTH
STOP .M          3000.00000:  STOP DEPTH
STEP .M             0.15240:  STEP
NULL .              -999.25:  NULL VALUE
COMP .                     :  COMPANY
WELL .        WAR          :  WELL
FLD  .                     :  FIELD
LOC  .                     :  LOCATION
CTRY .                     :  COUNTRY
STAT .                     :  STATE
CNTY .                     :  COUNTY
SRVC .                     :  SERVICE COMPANY
DATE .                     :  DATE
API  .                     :  API NUMBER
UWI  .                     :  UNIQUE WELL ID
~Curve Information Block
#MNEM.UNIT         API CODE   Curve Description
#---------- ----------------  -----------------
DEPTH.M                    :  
BIT  .IN                   :  merged BS
DTS  .US/F                 :  DTSM_F(deeper) and DTSM merged
~Parameter Information Block
#MNEM.UNIT            Value   Description
#---------- ----------------  -----------
PROJECT.     Testgas@hotcepns02:  
SET  .          SPLICEDLOGS:  
~Other Information Block
# 
~A       DEPTH            BIT            DTS 
# ...
    1515.46540         8.5000       171.8183
    1515.61780         8.5000       171.7059
    1515.77020         8.5000       170.2106
    1515.92260         8.5000       169.3601
    1516.07500         8.5000       168.6270
    1516.22740         8.5000       169.0969
    1516.37980         8.5000       171.6952
    1516.53220         8.5000       171.6971
    1516.68460         8.5000       172.0777
    1516.83700         8.5000       172.7543
    1516.98940         8.5000       173.2216
    1517.14180         8.5000       172.8179
    1517.29420         8.5000       172.0356
    1517.44660         8.5000       168.2216
    1517.59900         8.5000       166.6151
    1517.75140         8.5000       166.3656
    1517.90380         8.5000       170.4253
    1518.05620         8.5000       170.1845
    1518.20860         8.5000       169.1242
    1518.36100         8.5000       169.1007
    1518.51340         8.5000       166.7342
    1518.66580         8.5000       166.4221
    1518.81820         8.5000       166.8510
    1518.97060         8.5000       169.7664
    1519.12300         8.5000       169.5657
    1519.27540         8.5000       166.0598
    1519.42780         8.5000       167.0597
    1519.58020         8.5000       171.9513
    1519.73260         8.5000       172.4445
    1519.88500         8.5000       172.6734
    1520.03740         8.5000       170.5181
    1520.18980         8.5000       164.7225
    1520.34220         8.5000       164.5574
    1520.49460         8.5000       165.1261
    1520.64700         8.5000       166.2406
    1520.79940         8.5000       167.1291
    1520.95180         8.5000       166.4473
    1521.10420         8.5000       164.6422
    1521.25660         8.5000       164.2822
    1521.40900         8.5000       172.5485
    1521.56140         8.5000       178.0519
    1521.71380         8.5000       178.2818
    1521.86620         8.5000       174.1405
    1522.01860         8.5000       172.1599
    1522.17100         8.5000       174.1927
    1522.32340         8.5000       174.0181
    1522.47580         8.5000       172.2819
    1522.62820         8.5000       169.6541
    1522.78060         8.5000       166.8200
    1522.93300         8.5000       166.7190
    1523.08540         8.5000       166.6685
    1523.23780         8.5000       166.8270
    1523.39020         8.5000       166.4745
    1523.54260         8.5000       166.2109
    1523.69500         8.5000       167.8744
    1523.84740         8.5000       169.0373
    1523.99980         8.5000       170.6243
    1524.15220         8.5000       171.7803
    1524.30460         8.5000       172.1337
    1524.45700         8.5000       172.3135
    1524.60940         8.5000       171.7655
    1524.76180         8.5000       169.2571
    1524.91420         8.5000       166.2770
    1525.06660         8.5000       164.6240
    1525.21900         8.5000       164.1111
    1525.37140         8.5000       164.2970
    1525.52380         8.5000       165.2330
    1525.67620         8.5000       167.8655
    1525.82860         8.5000       171.8956
    1525.98100         8.5000       169.9440
    1526.13340         8.5000       170.3793
    1526.28580         8.5000       167.9674
    1526.43820         8.5000       168.8584
    1526.59060         8.5000       169.0137
    1526.74300         8.5000       171.9313
    1526.89540         8.5000       171.9876
    1527.04780         8.5000       170.8665
    1527.20020         8.5000       169.1873
    1527.35260         8.5000       168.2018
    1527.50500         8.5000       166.6447
    1527.65740         8.5000       166.4374
    1527.80980         8.5000       164.6511
    1527.96220         8.5000       162.1417
    1528.11460         8.5000       162.6543
    1528.26700         8.5000       164.8700
    1528.41940         8.5000       166.8819
    1528.57180         8.5000       168.1822
    1528.72420         8.5000       165.9964
    1528.87660         8.5000       164.7197
    1529.02900         8.5000       163.9748
    1529.18140         8.5000       161.3372
    1529.33380         8.5000       159.0461
    1529.48620         8.5000       157.1784
    1529.63860         8.5000       154.8504
    1529.79100         8.5000       153.8554
    1529.94340         8.5000       154.1429
    1530.09580         8.5000       156.7583
    1530.24820         8.5000       159.7890
    1530.40060         8.5000       160.1636
    1530.55300         8.5000       155.8476
    1530.70540         8.5000       148.1577
    1530.85780         8.5000       148.1077
    1531.01020         8.5000       159.8694
    1531.16260         8.5000       164.3481
    1531.31500         8.5000       165.7836
    1531.46740         8.5000       158.5303
    1531.61980         8.5000       156.6228
    1531.77220         8.5000       154.1913
    1531.92460         8.5000       149.2848
    1532.07700         8.5000       145.1914
    1532.22940         8.5000       150.9584
    1532.38180         8.5000       164.1243
    1532.53420         8.5000       176.4593
    1532.68660         8.5000       176.0411
    1532.83900         8.5000       171.7583
    1532.99140         8.5000       166.8201
    1533.14380         8.5000       162.5655
    1533.29620         8.5000       163.7570
    1533.44860         8.5000       160.2438
    1533.60100         8.5000       160.8726
    1533.75340         8.5000       160.2118
    1533.90580         8.5000       160.7680
    1534.05820         8.5000       164.0229
    1534.21060         8.5000       164.1970
    1534.36300         8.5000       167.5050
    1534.51540         8.5000       170.7130
    1534.66780         8.5000       170.7932
    1534.82020         8.5000       170.8010
    1534.97260         8.5000       166.3698
    1535.12500         8.5000       165.0806
    1535.27740         8.5000       163.9425
    1535.42980         8.5000       162.4859
    1535.58220         8.5000       163.8290
    1535.73460         8.5000       162.2047
    1535.88700         8.5000       164.2195
    1536.03940         8.5000       165.6063
    1536.19180         8.5000       166.7639
    1536.34420         8.5000       167.3773
    1536.49660         8.5000       166.5854
    1536.64900         8.5000       165.5743
    1536.80140         8.5000       164.5987
    1536.95380         8.5000       164.7911
    1537.10620         8.5000       165.2206
    1537.25860         8.5000       164.8392
    1537.41100         8.5000       166.1420
    1537.56340         8.5000       165.8817
    1537.71580         8.5000       167.3131
    1537.86820         8.5000       170.8861
    1538.02060         8.5000       169.0190
    1538.17300         8.5000       172.3709
    1538.32540         8.5000       171.7402
    1538.47780         8.5000       170.1660
    1538.63020         8.5000       170.1170
    1538.78260         8.5000       167.1378
    1538.93500         8.5000       166.3745
    1539.08740         8.5000       165.6349
    1539.23980         8.5000       165.2438
    1539.39220         8.5000       164.3353
    1539.54460         8.5000       164.7693
    1539.69700         8.5000       164.6235
    1539.84940         8.5000       164.5559
    1540.00180         8.5000       164.6151
    1540.15420         8.5000       164.6746
    1540.30660         8.5000       164.0308
    1540.45900         8.5000       163.7424
    1540.61140         8.5000       163.9903
    1540.76380         8.5000       164.0893
    1540.91620         8.5000       164.3559
    1541.06860         8.5000       162.5669
    1541.22100         8.5000       163.9084
    1541.37340         8.5000       162.5251
    1541.52580         8.5000       163.1573
    1541.67820         8.5000       161.5170
    1541.83060         8.5000       159.9683
    1541.98300         8.5000       159.6949
    1542.13540         8.5000       156.8879
    1542.28780         8.5000       155.4888
    1542.44020         8.5000       154.1109
