~Version Information Block
VERS .                 2.00:  CWLS LOG ASCII STANDARD - VERSION 2.00
WRAP .                   NO:  One line per depth step
~Well Information Block
#MNEM.UNIT        Data Type   Information
#---------- ----------------  -----------
STRT .M          1000.00000:  START DEPTH
STOP .M          3000.00000:  STOP DEPTH
STEP .M             0.15240:  STEP
NULL .              -999.25:  NULL VALUE
COMP .                     :  COMPANY
WELL .        WAR          :  WELL
FLD  .                     :  FIELD
LOC  .                     :  LOCATION
CTRY .                     :  COUNTRY
STAT .                     :  STATE
CNTY .                     :  COUNTY
SRVC .                     :  SERVICE COMPANY
DATE .                     :  DATE
API  .                     :  API NUMBER
UWI  .                     :  UNIQUE WELL ID
~Curve Information Block
#MNEM.UNIT         API CODE   Curve Description
#---------- ----------------  -----------------
DEPTH.M                    :  
BIT  .IN                   :  merged BS
DTS  .US/F                 :  DTSM_F(deeper) and DTSM merged
~Parameter Information Block
#MNEM.UNIT            Value   Description
#---------- ----------------  -----------
PROJECT.     Testgas@hotcepns02:  
SET  .          SPLICEDLOGS:  
~Other Information Block
# 
~A       DEPTH            BIT            DTS 
# ...
    1651.10140         8.5000       156.1316
    1651.25380         8.5000       152.9923
    1651.40620         8.5000       153.7140
    1651.55860         8.5000       155.9442
    1651.71100         8.5000       154.5644
    1651.86340         8.5000       148.1481
    1652.01580         8.5000       142.2373
    1652.16820         8.5000       154.1052
    1652.32060         8.5000       185.8758
    1652.47300         8.5000       188.5335
    1652.62540         8.5000       164.7821
    1652.77780         8.5000       152.8033
    1652.93020         8.5000       153.1029
    1653.08260         8.5000       156.4115
    1653.23500         8.5000       154.8168
    1653.38740         8.5000       157.5318
    1653.53980         8.5000       156.0938
    1653.69220         8.5000       158.3727
    1653.84460         8.5000       153.7867
    1653.99700         8.5000       159.2821
    1654.14940         8.5000       155.0891
    1654.30180         8.5000       151.0173
    1654.45420         8.5000       160.7634
    1654.60660         8.5000       169.9484
    1654.75900         8.5000       176.1440
    1654.91140         8.5000       169.9674
    1655.06380         8.5000       160.8117
    1655.21620         8.5000       160.1860
    1655.36860         8.5000       160.2100
    1655.52100         8.5000       159.9636
    1655.67340         8.5000       160.1194
    1655.82580         8.5000       161.0966
    1655.97820         8.5000       162.4322
    1656.13060         8.5000       154.7504
    1656.28300         8.5000       142.9086
    1656.43540         8.5000       158.9214
    1656.58780         8.5000       164.0910
    1656.74020         8.5000       173.0031
    1656.89260         8.5000       172.0194
    1657.04500         8.5000       148.9136
    1657.19740         8.5000       153.3625
    1657.34980         8.5000       166.2082
    1657.50220         8.5000       166.7608
    1657.65460         8.5000       165.4780
    1657.80700         8.5000       160.2036
    1657.95940         8.5000       159.8586
    1658.11180         8.5000       162.7769
    1658.26420         8.5000       162.0806
    1658.41660         8.5000       163.8934
    1658.56900         8.5000       164.2730
    1658.72140         8.5000       162.0136
    1658.87380         8.5000       160.4259
    1659.02620         8.5000       162.1212
    1659.17860         8.5000       164.1404
    1659.33100         8.5000       163.9245
    1659.48340         8.5000       161.8368
    1659.63580         8.5000       158.5001
    1659.78820         8.5000       157.0024
    1659.94060         8.5000       160.7976
    1660.09300         8.5000       161.6701
    1660.24540         8.5000       161.0179
    1660.39780         8.5000       153.2677
    1660.55020         8.5000       150.4632
    1660.70260         8.5000       148.3069
    1660.85500         8.5000       148.2028
    1661.00740         8.5000       156.7711
    1661.15980         8.5000       163.9329
    1661.31220         8.5000       164.4967
    1661.46460         8.5000       159.8950
    1661.61700         8.5000       157.7809
    1661.76940         8.5000       160.9244
    1661.92180         8.5000       161.9885
    1662.07420         8.5000       161.8978
    1662.22660         8.5000       160.3426
    1662.37900         8.5000       159.7966
    1662.53140         8.5000       160.6744
    1662.68380         8.5000       161.7121
    1662.83620         8.5000       158.5828
    1662.98860         8.5000       159.8238
    1663.14100         8.5000       160.0995
    1663.29340         8.5000       161.1332
    1663.44580         8.5000       162.1082
    1663.59820         8.5000       154.2462
    1663.75060         8.5000       147.8181
    1663.90300         8.5000       162.2541
    1664.05540         8.5000       173.3375
    1664.20780         8.5000       176.3712
    1664.36020         8.5000       176.1129
    1664.51260         8.5000       158.7984
    1664.66500         8.5000       156.9665
    1664.81740         8.5000       160.3514
    1664.96980         8.5000       162.1725
    1665.12220         8.5000       163.9253
    1665.27460         8.5000       165.9442
    1665.42700         8.5000       162.7657
    1665.57940         8.5000       162.3972
    1665.73180         8.5000       160.7597
    1665.88420         8.5000       159.8797
    1666.03660         8.5000       160.0871
    1666.18900         8.5000       158.3802
    1666.34140         8.5000       157.8899
    1666.49380         8.5000       160.1725
    1666.64620         8.5000       160.6260
    1666.79860         8.5000       160.0650
    1666.95100         8.5000       153.6612
    1667.10340         8.5000       152.0236
    1667.25580         8.5000       159.9846
    1667.40820         8.5000       162.2998
    1667.56060         8.5000       163.8971
    1667.71300         8.5000       160.3604
    1667.86540         8.5000       159.8598
    1668.01780         8.5000       161.6573
    1668.17020         8.5000       163.8962
    1668.32260         8.5000       164.1091
    1668.47500         8.5000       162.3833
    1668.62740         8.5000       161.3033
    1668.77980         8.5000       158.1331
    1668.93220         8.5000       157.9664
    1669.08460         8.5000       161.4854
    1669.23700         8.5000       162.7471
    1669.38940         8.5000       164.5836
    1669.54180         8.5000       158.9290
    1669.69420         8.5000       154.5393
    1669.84660         8.5000       153.4765
    1669.99900         8.5000       152.2079
    1670.15140         8.5000       151.8546
    1670.30380         8.5000       151.9412
    1670.45620         8.5000       152.6395
    1670.60860         8.5000       153.4376
    1670.76100         8.5000       156.4166
    1670.91340         8.5000       159.7952
    1671.06580         8.5000       158.9654
    1671.21820         8.5000       159.8959
    1671.37060         8.5000       159.8465
    1671.52300         8.5000       157.1913
    1671.67540         8.5000       157.4182
    1671.82780         8.5000       156.5999
    1671.98020         8.5000       154.9010
    1672.13260         8.5000       156.3537
    1672.28500         8.5000       152.3262
    1672.43740         8.5000       148.1060
    1672.58980         8.5000       148.0557
    1672.74220         8.5000       151.2601
    1672.89460         8.5000       172.9326
    1673.04700         8.5000       175.5058
    1673.19940         8.5000       161.7377
    1673.35180         8.5000       148.9933
    1673.50420         8.5000       148.7672
    1673.65660         8.5000       152.0303
    1673.80900         8.5000       151.7570
    1673.96140         8.5000       151.9886
    1674.11380         8.5000       155.9667
    1674.26620         8.5000       157.4367
    1674.41860         8.5000       157.1554
    1674.57100         8.5000       155.7943
    1674.72340         8.5000       154.5174
    1674.87580         8.5000       156.4966
    1675.02820         8.5000       155.9964
    1675.18060         8.5000       154.3474
    1675.33300         8.5000       157.0643
    1675.48540         8.5000       160.3562
    1675.63780         8.5000       162.2395
    1675.79020         8.5000       163.2488
    1675.94260         8.5000       163.8691
    1676.09500         8.5000       161.8076
    1676.24740         8.5000       160.1358
    1676.39980         8.5000       158.8767
    1676.55220         8.5000       155.0055
    1676.70460         8.5000       154.6354
    1676.85700         8.5000       154.4556
    1677.00940         8.5000       158.4353
    1677.16180         8.5000       159.6550
    1677.31420         8.5000       160.6752
    1677.46660         8.5000       160.3887
    1677.61900         8.5000       158.2838
    1677.77140         8.5000       153.8875
    1677.92380         8.5000       150.1717
    1678.07620         8.5000       149.4623
