~Version Information Block
VERS .                 2.00:  CWLS LOG ASCII STANDARD - VERSION 2.00
WRAP .                   NO:  One line per depth step
~Well Information Block
#MNEM.UNIT        Data Type   Information
#---------- ----------------  -----------
STRT .M          1000.00000:  START DEPTH
STOP .M          3000.00000:  STOP DEPTH
STEP .M             0.15240:  STEP
NULL .              -999.25:  NULL VALUE
COMP .                     :  COMPANY
WELL .        WAR          :  WELL
FLD  .                     :  FIELD
LOC  .                     :  LOCATION
CTRY .                     :  COUNTRY
STAT .                     :  STATE
CNTY .                     :  COUNTY
SRVC .                     :  SERVICE COMPANY
DATE .                     :  DATE
API  .                     :  API NUMBER
UWI  .                     :  UNIQUE WELL ID
~Curve Information Block
#MNEM.UNIT         API CODE   Curve Description
#---------- ----------------  -----------------
DEPTH.M                    :  
BIT  .IN                   :  merged BS
DTS  .US/F                 :  DTSM_F(deeper) and DTSM merged
~Parameter Information Block
#MNEM.UNIT            Value   Description
#---------- ----------------  -----------
PROJECT.     Testgas@hotcepns02:  
SET  .          SPLICEDLOGS:  
~Other Information Block
# 
~A       DEPTH            BIT            DTS 
# ...
    2329.28140         8.5000       128.2874
    2329.43380         8.5000       127.2784
    2329.58620         8.5000       129.7549
    2329.73860         8.5000       130.9260
    2329.89100         8.5000       129.9772
    2330.04340         8.5000       127.9856
    2330.19580         8.5000       127.6811
    2330.34820         8.5000       125.7506
    2330.50060         8.5000       121.3759
    2330.65300         8.5000       122.2724
    2330.80540         8.5000       116.0512
    2330.95780         8.5000       118.8172
    2331.11020         8.5000       121.0826
    2331.26260         8.5000       115.0371
    2331.41500         8.5000       119.1899
    2331.56740         8.5000       120.0022
    2331.71980         8.5000       119.3267
    2331.87220         8.5000       126.7634
    2332.02460         8.5000       126.4463
    2332.17700         8.5000       128.9063
    2332.32940         8.5000       133.6253
    2332.48180         8.5000       128.9427
    2332.63420         8.5000       129.1649
    2332.78660         8.5000       126.7550
    2332.93900         8.5000       123.9814
    2333.09140         8.5000       120.6189
    2333.24380         8.5000       116.1296
    2333.39620         8.5000       113.9560
    2333.54860         8.5000       112.2319
    2333.70100         8.5000       110.8208
    2333.85340         8.5000       110.4761
    2334.00580         8.5000       112.9511
    2334.15820         8.5000       114.5604
    2334.31060         8.5000       116.6173
    2334.46300         8.5000       117.4685
    2334.61540         8.5000       116.8983
    2334.76780         8.5000       117.6275
    2334.92020         8.5000       117.2034
    2335.07260         8.5000       118.1952
    2335.22500         8.5000       120.7267
    2335.37740         8.5000       120.9531
    2335.52980         8.5000       123.5368
    2335.68220         8.5000       124.7033
    2335.83460         8.5000       125.3619
    2335.98700         8.5000       126.2135
    2336.13940         8.5000       126.1709
    2336.29180         8.5000       126.7159
    2336.44420         8.5000       126.5885
    2336.59660         8.5000       127.1750
    2336.74900         8.5000       127.0095
    2336.90140         8.5000       125.2982
    2337.05380         8.5000       124.2079
    2337.20620         8.5000       122.0409
    2337.35860         8.5000       123.0443
    2337.51100         8.5000       123.1508
    2337.66340         8.5000       124.3937
    2337.81580         8.5000       125.6120
    2337.96820         8.5000       124.9049
    2338.12060         8.5000       125.4508
    2338.27300         8.5000       126.3246
    2338.42540         8.5000       127.1787
    2338.57780         8.5000       128.8566
    2338.73020         8.5000       127.3189
    2338.88260         8.5000       127.0749
    2339.03500         8.5000       127.2982
    2339.18740         8.5000       127.2182
    2339.33980         8.5000       130.9498
    2339.49220         8.5000       133.5087
    2339.64460         8.5000       134.5770
    2339.79700         8.5000       135.1781
    2339.94940         8.5000       133.7592
    2340.10180         8.5000       132.6406
    2340.25420         8.5000       129.8783
    2340.40660         8.5000       128.9964
    2340.55900         8.5000       128.9141
    2340.71140         8.5000       127.6121
    2340.86380         8.5000       130.0940
    2341.01620         8.5000       130.6241
    2341.16860         8.5000       130.2722
    2341.32100         8.5000       133.5550
    2341.47340         8.5000       130.4711
    2341.62580         8.5000       131.2870
    2341.77820         8.5000       128.7063
    2341.93060         8.5000       127.1086
    2342.08300         8.5000       126.5029
    2342.23540         8.5000       125.9954
    2342.38780         8.5000       128.9203
    2342.54020         8.5000       128.5539
    2342.69260         8.5000       130.5997
    2342.84500         8.5000       129.4222
    2342.99740         8.5000       129.7452
    2343.14980         8.5000       131.3984
    2343.30220         8.5000       133.2338
    2343.45460         8.5000       135.2267
    2343.60700         8.5000       133.2230
    2343.75940         8.5000       130.9986
    2343.91180         8.5000       129.4386
    2344.06420         8.5000       130.0483
    2344.21660         8.5000       127.1119
    2344.36900         8.5000       127.3040
    2344.52140         8.5000       124.0966
    2344.67380         8.5000       119.4846
    2344.82620         8.5000       122.4381
    2344.97860         8.5000       121.0997
    2345.13100         8.5000       125.7877
    2345.28340         8.5000       127.0389
    2345.43580         8.5000       125.9473
    2345.58820         8.5000       128.7252
    2345.74060         8.5000       125.9440
    2345.89300         8.5000       124.8299
    2346.04540         8.5000       124.0747
    2346.19780         8.5000       123.7063
    2346.35020         8.5000       123.8600
    2346.50260         8.5000       124.1226
    2346.65500         8.5000       123.5679
    2346.80740         8.5000       123.0790
    2346.95980         8.5000       120.7735
    2347.11220         8.5000       118.0849
    2347.26460         8.5000       117.2095
    2347.41700         8.5000       115.3529
    2347.56940         8.5000       116.6656
    2347.72180         8.5000       115.4236
    2347.87420         8.5000       115.5106
    2348.02660         8.5000       116.1675
    2348.17900         8.5000       116.9922
    2348.33140         8.5000       118.4584
    2348.48380         8.5000       120.9595
    2348.63620         8.5000       123.0905
    2348.78860         8.5000       123.8266
    2348.94100         8.5000       124.6309
    2349.09340         8.5000       123.5473
    2349.24580         8.5000       123.5765
    2349.39820         8.5000       123.4036
    2349.55060         8.5000       118.7594
    2349.70300         8.5000       117.8283
    2349.85540         8.5000       117.7451
    2350.00780         8.5000       118.2106
    2350.16020         8.5000       121.4986
    2350.31260         8.5000       122.0482
    2350.46500         8.5000       122.2334
    2350.61740         8.5000       123.3324
    2350.76980         8.5000       122.8241
    2350.92220         8.5000       123.9941
    2351.07460         8.5000       124.2411
    2351.22700         8.5000       124.0747
    2351.37940         8.5000       123.9344
    2351.53180         8.5000       123.8660
    2351.68420         8.5000       124.1503
    2351.83660         8.5000       123.8136
    2351.98900         8.5000       123.7978
    2352.14140         8.5000       122.4747
    2352.29380         8.5000       117.9886
    2352.44620         8.5000       115.4464
    2352.59860         8.5000       114.4654
    2352.75100         8.5000       114.7045
    2352.90340         8.5000       117.0461
    2353.05580         8.5000       117.2198
    2353.20820         8.5000       119.4009
    2353.36060         8.5000       117.8580
    2353.51300         8.5000       119.1949
    2353.66540         8.5000       119.2988
    2353.81780         8.5000       119.0799
    2353.97020         8.5000       119.1272
    2354.12260         8.5000       118.7536
    2354.27500         8.5000       117.6656
    2354.42740         8.5000       119.3599
    2354.57980         8.5000       120.7517
    2354.73220         8.5000       120.9927
    2354.88460         8.5000       124.7371
    2355.03700         8.5000       120.8235
    2355.18940         8.5000       119.2174
    2355.34180         8.5000       115.4313
    2355.49420         8.5000       113.4765
    2355.64660         8.5000       116.5933
    2355.79900         8.5000       121.7963
    2355.95140         8.5000       126.9740
    2356.10380         8.5000       131.0027
    2356.25620         8.5000       130.3769
