~Version Information Block
VERS .                 2.00:  CWLS LOG ASCII STANDARD - VERSION 2.00
WRAP .                   NO:  One line per depth step
~Well Information Block
#MNEM.UNIT        Data Type   Information
#---------- ----------------  -----------
STRT .M          1000.00000:  START DEPTH
STOP .M          3000.00000:  STOP DEPTH
STEP .M             0.15240:  STEP
NULL .              -999.25:  NULL VALUE
COMP .                     :  COMPANY
WELL .        WAR          :  WELL
FLD  .                     :  FIELD
LOC  .                     :  LOCATION
CTRY .                     :  COUNTRY
STAT .                     :  STATE
CNTY .                     :  COUNTY
SRVC .                     :  SERVICE COMPANY
DATE .                     :  DATE
API  .                     :  API NUMBER
UWI  .                     :  UNIQUE WELL ID
~Curve Information Block
#MNEM.UNIT         API CODE   Curve Description
#---------- ----------------  -----------------
DEPTH.M                    :  
BIT  .IN                   :  merged BS
DTS  .US/F                 :  DTSM_F(deeper) and DTSM merged
~Parameter Information Block
#MNEM.UNIT            Value   Description
#---------- ----------------  -----------
PROJECT.     Testgas@hotcepns02:  
SET  .          SPLICEDLOGS:  
~Other Information Block
# 
~A       DEPTH            BIT            DTS 
# ...
    1271.32060         8.5000       167.4077
    1271.47300         8.5000       165.9193
    1271.62540         8.5000       165.6698
    1271.77780         8.5000       165.5370
    1271.93020         8.5000       169.9081
    1272.08260         8.5000       170.1452
    1272.23500         8.5000       165.2685
    1272.38740         8.5000       160.3984
    1272.53980         8.5000       157.0013
    1272.69220         8.5000       158.7899
    1272.84460         8.5000       161.8194
    1272.99700         8.5000       163.9092
    1273.14940         8.5000       164.1841
    1273.30180         8.5000       164.0615
    1273.45420         8.5000       164.5520
    1273.60660         8.5000       166.2569
    1273.75900         8.5000       166.2827
    1273.91140         8.5000       164.3552
    1274.06380         8.5000       164.8237
    1274.21620         8.5000       167.7974
    1274.36860         8.5000       169.5140
    1274.52100         8.5000       171.8596
    1274.67340         8.5000       173.6126
    1274.82580         8.5000       177.4840
    1274.97820         8.5000       182.9223
    1275.13060         8.5000       186.8272
    1275.28300         8.5000       189.8894
    1275.43540         8.5000       190.0652
    1275.58780         8.5000       183.1620
    1275.74020         8.5000       176.3156
    1275.89260         8.5000       181.1743
    1276.04500         8.5000       188.1435
    1276.19740         8.5000       189.6764
    1276.34980         8.5000       184.2832
    1276.50220         8.5000       174.1577
    1276.65460         8.5000       176.1130
    1276.80700         8.5000       181.3846
    1276.95940         8.5000       186.2716
    1277.11180         8.5000       187.8824
    1277.26420         8.5000       183.8940
    1277.41660         8.5000       178.5395
    1277.56900         8.5000       175.8773
    1277.72140         8.5000       173.3535
    1277.87380         8.5000       171.3768
    1278.02620         8.5000       171.4003
    1278.17860         8.5000       173.6985
    1278.33100         8.5000       174.5417
    1278.48340         8.5000       172.6320
    1278.63580         8.5000       170.6146
    1278.78820         8.5000       169.5991
    1278.94060         8.5000       173.3775
    1279.09300         8.5000       180.5072
    1279.24540         8.5000       183.4704
    1279.39780         8.5000       183.9517
    1279.55020         8.5000       185.3647
    1279.70260         8.5000       187.7284
    1279.85500         8.5000       190.0682
    1280.00740         8.5000       190.0439
    1280.15980         8.5000       187.7830
    1280.31220         8.5000       187.4552
    1280.46460         8.5000       183.1869
    1280.61700         8.5000       180.3571
    1280.76940         8.5000       179.9025
    1280.92180         8.5000       177.6185
    1281.07420         8.5000       176.3042
    1281.22660         8.5000       174.1093
    1281.37900         8.5000       174.3101
    1281.53140         8.5000       175.8635
    1281.68380         8.5000       176.6240
    1281.83620         8.5000       182.8555
    1281.98860         8.5000       185.4163
    1282.14100         8.5000       188.2827
    1282.29340         8.5000       188.3345
    1282.44580         8.5000       188.4649
    1282.59820         8.5000       188.9993
    1282.75060         8.5000       188.2525
    1282.90300         8.5000       188.2513
    1283.05540         8.5000       187.9527
    1283.20780         8.5000       185.1177
    1283.36020         8.5000       184.9688
    1283.51260         8.5000       178.2389
    1283.66500         8.5000       176.0931
    1283.81740         8.5000       171.5202
    1283.96980         8.5000       170.8490
    1284.12220         8.5000       173.8450
    1284.27460         8.5000       176.2586
    1284.42700         8.5000       177.5070
    1284.57940         8.5000       178.2280
    1284.73180         8.5000       183.8748
    1284.88420         8.5000       187.2390
    1285.03660         8.5000       186.5992
    1285.18900         8.5000       182.7612
    1285.34140         8.5000       176.8928
    1285.49380         8.5000       173.7077
    1285.64620         8.5000       172.4588
    1285.79860         8.5000       173.4704
    1285.95100         8.5000       175.9821
    1286.10340         8.5000       178.1494
    1286.25580         8.5000       182.8954
    1286.40820         8.5000       184.0724
    1286.56060         8.5000       185.6419
    1286.71300         8.5000       186.2802
    1286.86540         8.5000       183.9140
    1287.01780         8.5000       173.8198
    1287.17020         8.5000       172.4813
    1287.32260         8.5000       176.6667
    1287.47500         8.5000       184.0222
    1287.62740         8.5000       185.7684
    1287.77980         8.5000       185.5858
    1287.93220         8.5000       184.4397
    1288.08460         8.5000       183.2594
    1288.23700         8.5000       183.9521
    1288.38940         8.5000       184.3516
    1288.54180         8.5000       184.8093
    1288.69420         8.5000       184.7259
    1288.84660         8.5000       184.9543
    1288.99900         8.5000       183.9020
    1289.15140         8.5000       180.9656
    1289.30380         8.5000       176.4965
    1289.45620         8.5000       172.4251
    1289.60860         8.5000       168.5698
    1289.76100         8.5000       166.8483
    1289.91340         8.5000       168.9048
    1290.06580         8.5000       171.6310
    1290.21820         8.5000       172.0523
    1290.37060         8.5000       172.4113
    1290.52300         8.5000       174.3232
    1290.67540         8.5000       182.2115
    1290.82780         8.5000       187.9996
    1290.98020         8.5000       183.7928
    1291.13260         8.5000       175.9342
    1291.28500         8.5000       172.7120
    1291.43740         8.5000       172.9432
    1291.58980         8.5000       173.8587
    1291.74220         8.5000       173.6917
    1291.89460         8.5000       172.1175
    1292.04700         8.5000       170.3544
    1292.19940         8.5000       172.3474
    1292.35180         8.5000       176.0846
    1292.50420         8.5000       177.7717
    1292.65660         8.5000       176.8911
    1292.80900         8.5000       172.6320
    1292.96140         8.5000       172.7015
    1293.11380         8.5000       172.7122
    1293.26620         8.5000       172.5964
    1293.41860         8.5000       173.4072
    1293.57100         8.5000       173.0739
    1293.72340         8.5000       175.1578
    1293.87580         8.5000       176.4885
    1294.02820         8.5000       175.7452
    1294.18060         8.5000       174.2171
    1294.33300         8.5000       174.7798
    1294.48540         8.5000       176.1112
    1294.63780         8.5000       178.3469
    1294.79020         8.5000       177.1154
    1294.94260         8.5000       171.7181
    1295.09500         8.5000       169.8654
    1295.24740         8.5000       168.7805
    1295.39980         8.5000       166.4877
    1295.55220         8.5000       165.8208
    1295.70460         8.5000       165.0064
    1295.85700         8.5000       165.4402
    1296.00940         8.5000       166.3950
    1296.16180         8.5000       166.5306
    1296.31420         8.5000       168.0170
    1296.46660         8.5000       168.6666
    1296.61900         8.5000       164.6581
    1296.77140         8.5000       166.8771
    1296.92380         8.5000       172.2252
    1297.07620         8.5000       174.7573
    1297.22860         8.5000       172.6331
    1297.38100         8.5000       168.5039
    1297.53340         8.5000       172.3005
    1297.68580         8.5000       176.1307
    1297.83820         8.5000       179.1367
    1297.99060         8.5000       177.5995
    1298.14300         8.5000       175.4675
    1298.29540         8.5000       174.3205
