~Version Information Block
VERS .                 2.00:  CWLS LOG ASCII STANDARD - VERSION 2.00
WRAP .                   NO:  One line per depth step
~Well Information Block
#MNEM.UNIT        Data Type   Information
#---------- ----------------  -----------
STRT .M          1000.00000:  START DEPTH
STOP .M          3000.00000:  STOP DEPTH
STEP .M             0.15240:  STEP
NULL .              -999.25:  NULL VALUE
COMP .                     :  COMPANY
WELL .        WAR          :  WELL
FLD  .                     :  FIELD
LOC  .                     :  LOCATION
CTRY .                     :  COUNTRY
STAT .                     :  STATE
CNTY .                     :  COUNTY
SRVC .                     :  SERVICE COMPANY
DATE .                     :  DATE
API  .                     :  API NUMBER
UWI  .                     :  UNIQUE WELL ID
~Curve Information Block
#MNEM.UNIT         API CODE   Curve Description
#---------- ----------------  -----------------
DEPTH.M                    :  
BIT  .IN                   :  merged BS
DTS  .US/F                 :  DTSM_F(deeper) and DTSM merged
~Parameter Information Block
#MNEM.UNIT            Value   Description
#---------- ----------------  -----------
PROJECT.     Testgas@hotcepns02:  
SET  .          SPLICEDLOGS:  
~Other Information Block
# 
~A       DEPTH            BIT            DTS 
# ...
    2573.42620         8.5000       123.3823
    2573.57860         8.5000       122.9297
    2573.73100         8.5000       123.3814
    2573.88340         8.5000       122.7349
    2574.03580         8.5000       123.2377
    2574.18820         8.5000       122.5320
    2574.34060         8.5000       122.7757
    2574.49300         8.5000       123.1907
    2574.64540         8.5000       123.0831
    2574.79780         8.5000       124.5548
    2574.95020         8.5000       125.0442
    2575.10260         8.5000       124.9696
    2575.25500         8.5000       125.2698
    2575.40740         8.5000       124.6494
    2575.55980         8.5000       125.0316
    2575.71220         8.5000       125.2772
    2575.86460         8.5000       126.4796
    2576.01700         8.5000       127.2027
    2576.16940         8.5000       126.9349
    2576.32180         8.5000       125.7570
    2576.47420         8.5000       121.5642
    2576.62660         8.5000       119.2992
    2576.77900         8.5000       117.5043
    2576.93140         8.5000       117.4245
    2577.08380         8.5000       117.2479
    2577.23620         8.5000       117.0942
    2577.38860         8.5000       118.4836
    2577.54100         8.5000       119.1984
    2577.69340         8.5000       124.5844
    2577.84580         8.5000       126.4646
    2577.99820         8.5000       127.5658
    2578.15060         8.5000       129.1480
    2578.30300         8.5000       125.9917
    2578.45540         8.5000       125.9491
    2578.60780         8.5000       125.3354
    2578.76020         8.5000       122.9719
    2578.91260         8.5000       123.0341
    2579.06500         8.5000       122.3604
    2579.21740         8.5000       118.0703
    2579.36980         8.5000       121.7476
    2579.52220         8.5000       119.1276
    2579.67460         8.5000       118.2398
    2579.82700         8.5000       124.5996
    2579.97940         8.5000       122.9403
    2580.13180         8.5000       124.0627
    2580.28420         8.5000       119.3943
    2580.43660         8.5000       119.2075
    2580.58900         8.5000       119.3093
    2580.74140         8.5000       119.2431
    2580.89380         8.5000       124.6785
    2581.04620         8.5000       123.9796
    2581.19860         8.5000       127.2293
    2581.35100         8.5000       126.3892
    2581.50340         8.5000       125.0933
    2581.65580         8.5000       125.7485
    2581.80820         8.5000       123.9538
    2581.96060         8.5000       124.6078
    2582.11300         8.5000       124.5158
    2582.26540         8.5000       125.4800
    2582.41780         8.5000       125.0417
    2582.57020         8.5000       125.3835
    2582.72260         8.5000       124.6912
    2582.87500         8.5000       124.2475
    2583.02740         8.5000       124.2865
    2583.17980         8.5000       124.6436
    2583.33220         8.5000       124.2287
    2583.48460         8.5000       125.1921
    2583.63700         8.5000       126.3115
    2583.78940         8.5000       125.5151
    2583.94180         8.5000       126.5934
    2584.09420         8.5000       124.9914
    2584.24660         8.5000       126.0121
    2584.39900         8.5000       125.8666
    2584.55140         8.5000       125.0449
    2584.70380         8.5000       124.4672
    2584.85620         8.5000       123.9563
    2585.00860         8.5000       123.9563
    2585.16100         8.5000       125.6538
    2585.31340         8.5000       125.6538
    2585.46580         8.5000       125.6538
    2585.61820         8.5000       125.6538
    2585.77060         8.5000       125.3401
    2585.92300         8.5000       125.1556
    2586.07540         8.5000       124.9854
    2586.22780         8.5000       127.0214
    2586.38020         8.5000       126.7644
    2586.53260         8.5000       126.0282
    2586.68500         8.5000       126.4054
    2586.83740         8.5000       125.5566
    2586.98980         8.5000       125.9538
    2587.14220         8.5000       125.5254
    2587.29460         8.5000       125.0538
    2587.44700         8.5000       124.5859
    2587.59940         8.5000       123.1726
    2587.75180         8.5000       123.0177
    2587.90420         8.5000       122.9422
    2588.05660         8.5000       123.3308
    2588.20900         8.5000       124.9595
    2588.36140         8.5000       124.9891
    2588.51380         8.5000       124.7615
    2588.66620         8.5000       124.0707
    2588.81860         8.5000       123.1809
    2588.97100         8.5000       122.5360
    2589.12340         8.5000       121.9190
    2589.27580         8.5000       118.9507
    2589.42820         8.5000       117.9405
    2589.58060         8.5000       117.9454
    2589.73300         8.5000       117.4465
    2589.88540         8.5000       116.9851
    2590.03780         8.5000       116.6702
    2590.19020         8.5000       116.2262
    2590.34260         8.5000       115.4472
    2590.49500         8.5000       115.7837
    2590.64740         8.5000       115.0058
    2590.79980         8.5000       115.0375
    2590.95220         8.5000       116.0188
    2591.10460         8.5000       115.1746
    2591.25700         8.5000       116.4656
    2591.40940         8.5000       118.4802
    2591.56180         8.5000       119.1664
    2591.71420         8.5000       123.1198
    2591.86660         8.5000       123.0607
    2592.01900         8.5000       123.9738
    2592.17140         8.5000       125.3924
    2592.32380         8.5000       125.1579
    2592.47620         8.5000       126.5775
    2592.62860         8.5000       125.5139
    2592.78100         8.5000       125.4654
    2592.93340         8.5000       125.9436
    2593.08580         8.5000       125.2546
    2593.23820         8.5000       125.0502
    2593.39060         8.5000       123.9083
    2593.54300         8.5000       123.7896
    2593.69540         8.5000       123.4515
    2593.84780         8.5000       122.6656
    2594.00020         8.5000       122.1747
    2594.15260         8.5000       121.0194
    2594.30500         8.5000       121.0713
    2594.45740         8.5000       118.9926
    2594.60980         8.5000       119.0287
    2594.76220         8.5000       119.0286
    2594.91460         8.5000       119.1444
    2595.06700         8.5000       122.4112
    2595.21940         8.5000       122.8962
    2595.37180         8.5000       123.4089
    2595.52420         8.5000       122.3959
    2595.67660         8.5000       119.5008
    2595.82900         8.5000       119.5445
    2595.98140         8.5000       119.1411
    2596.13380         8.5000       119.8748
    2596.28620         8.5000       122.4952
    2596.43860         8.5000       122.9994
    2596.59100         8.5000       123.2072
    2596.74340         8.5000       123.0553
    2596.89580         8.5000       121.5608
    2597.04820         8.5000       122.3729
    2597.20060         8.5000       122.9217
    2597.35300         8.5000       121.7592
    2597.50540         8.5000       121.7091
    2597.65780         8.5000       119.1340
    2597.81020         8.5000       117.3841
    2597.96260         8.5000       116.1340
    2598.11500         8.5000       115.2404
    2598.26740         8.5000       117.5172
    2598.41980         8.5000       118.3951
    2598.57220         8.5000       121.4700
    2598.72460         8.5000       122.2785
    2598.87700         8.5000       122.6337
    2599.02940         8.5000       123.5390
    2599.18180         8.5000       122.9357
    2599.33420         8.5000       122.1550
    2599.48660         8.5000       122.1449
    2599.63900         8.5000       120.8199
    2599.79140         8.5000       119.3340
    2599.94380         8.5000       119.3454
    2600.09620         8.5000       118.6842
    2600.24860         8.5000       121.0477
    2600.40100         8.5000       121.8481
