~Version Information Block
VERS .                 2.00:  CWLS LOG ASCII STANDARD - VERSION 2.00
WRAP .                   NO:  One line per depth step
~Well Information Block
#MNEM.UNIT        Data Type   Information
#---------- ----------------  -----------
STRT .M          1000.00000:  START DEPTH
STOP .M          3000.00000:  STOP DEPTH
STEP .M             0.15240:  STEP
NULL .              -999.25:  NULL VALUE
COMP .                     :  COMPANY
WELL .        WAR          :  WELL
FLD  .                     :  FIELD
LOC  .                     :  LOCATION
CTRY .                     :  COUNTRY
STAT .                     :  STATE
CNTY .                     :  COUNTY
SRVC .                     :  SERVICE COMPANY
DATE .                     :  DATE
API  .                     :  API NUMBER
UWI  .                     :  UNIQUE WELL ID
~Curve Information Block
#MNEM.UNIT         API CODE   Curve Description
#---------- ----------------  -----------------
DEPTH.M                    :  
BIT  .IN                   :  merged BS
DTS  .US/F                 :  DTSM_F(deeper) and DTSM merged
~Parameter Information Block
#MNEM.UNIT            Value   Description
#---------- ----------------  -----------
PROJECT.     Testgas@hotcepns02:  
SET  .          SPLICEDLOGS:  
~Other Information Block
# 
~A       DEPTH            BIT            DTS 
# ...
    2058.00940         8.5000       137.0144
    2058.16180         8.5000       136.6340
    2058.31420         8.5000       134.1109
    2058.46660         8.5000       125.8552
    2058.61900         8.5000       122.5716
    2058.77140         8.5000       118.6055
    2058.92380         8.5000       114.6017
    2059.07620         8.5000       112.9014
    2059.22860         8.5000       112.8620
    2059.38100         8.5000       111.8926
    2059.53340         8.5000       113.5440
    2059.68580         8.5000       113.9173
    2059.83820         8.5000       113.6649
    2059.99060         8.5000       116.3582
    2060.14300         8.5000       119.4666
    2060.29540         8.5000       124.6223
    2060.44780         8.5000       130.0458
    2060.60020         8.5000       139.1169
    2060.75260         8.5000       141.1439
    2060.90500         8.5000       142.1441
    2061.05740         8.5000       139.9273
    2061.20980         8.5000       130.4418
    2061.36220         8.5000       128.7602
    2061.51460         8.5000       133.2124
    2061.66700         8.5000       136.1678
    2061.81940         8.5000       141.4914
    2061.97180         8.5000       141.7852
    2062.12420         8.5000       140.5280
    2062.27660         8.5000       142.1166
    2062.42900         8.5000       140.2231
    2062.58140         8.5000       138.1207
    2062.73380         8.5000       142.4177
    2062.88620         8.5000       144.0522
    2063.03860         8.5000       144.9954
    2063.19100         8.5000       142.1025
    2063.34340         8.5000       135.9516
    2063.49580         8.5000       124.8755
    2063.64820         8.5000       116.4909
    2063.80060         8.5000       116.7336
    2063.95300         8.5000       119.2236
    2064.10540         8.5000       126.1714
    2064.25780         8.5000       134.7707
    2064.41020         8.5000       133.5181
    2064.56260         8.5000       131.5172
    2064.71500         8.5000       125.6227
    2064.86740         8.5000       124.0636
    2065.01980         8.5000       128.4133
    2065.17220         8.5000       129.7845
    2065.32460         8.5000       135.6981
    2065.47700         8.5000       134.5094
    2065.62940         8.5000       134.4318
    2065.78180         8.5000       137.8953
    2065.93420         8.5000       140.2351
    2066.08660         8.5000       140.5045
    2066.23900         8.5000       138.0729
    2066.39140         8.5000       137.7457
    2066.54380         8.5000       136.8081
    2066.69620         8.5000       137.8112
    2066.84860         8.5000       135.2110
    2067.00100         8.5000       130.8557
    2067.15340         8.5000       129.2903
    2067.30580         8.5000       122.7279
    2067.45820         8.5000       122.0027
    2067.61060         8.5000       121.2962
    2067.76300         8.5000       120.4111
    2067.91540         8.5000       119.6726
    2068.06780         8.5000       117.5113
    2068.22020         8.5000       114.2761
    2068.37260         8.5000       114.6925
    2068.52500         8.5000       116.4551
    2068.67740         8.5000       119.1198
    2068.82980         8.5000       127.2226
    2068.98220         8.5000       130.9074
    2069.13460         8.5000       130.1447
    2069.28700         8.5000       125.1131
    2069.43940         8.5000       121.7363
    2069.59180         8.5000       117.2496
    2069.74420         8.5000       118.1100
    2069.89660         8.5000       115.6039
    2070.04900         8.5000       113.7555
    2070.20140         8.5000       113.4907
    2070.35380         8.5000       114.2042
    2070.50620         8.5000       117.7753
    2070.65860         8.5000       123.7240
    2070.81100         8.5000       127.7684
    2070.96340         8.5000       134.4736
    2071.11580         8.5000       138.8044
    2071.26820         8.5000       140.7318
    2071.42060         8.5000       140.8065
    2071.57300         8.5000       137.6413
    2071.72540         8.5000       135.9525
    2071.87780         8.5000       133.5605
    2072.03020         8.5000       132.4184
    2072.18260         8.5000       136.1914
    2072.33500         8.5000       139.5974
    2072.48740         8.5000       144.8795
    2072.63980         8.5000       147.5453
    2072.79220         8.5000       147.0912
    2072.94460         8.5000       143.4150
    2073.09700         8.5000       142.8276
    2073.24940         8.5000       142.4450
    2073.40180         8.5000       142.4389
    2073.55420         8.5000       141.5978
    2073.70660         8.5000       140.9923
    2073.85900         8.5000       139.5171
    2074.01140         8.5000       139.1612
    2074.16380         8.5000       139.8699
    2074.31620         8.5000       140.8308
    2074.46860         8.5000       142.7312
    2074.62100         8.5000       143.1277
    2074.77340         8.5000       141.9076
    2074.92580         8.5000       141.2407
    2075.07820         8.5000       138.6274
    2075.23060         8.5000       135.3839
    2075.38300         8.5000       129.3853
    2075.53540         8.5000       123.2306
    2075.68780         8.5000       119.6943
    2075.84020         8.5000       114.9100
    2075.99260         8.5000       113.7650
    2076.14500         8.5000       114.1867
    2076.29740         8.5000       117.1499
    2076.44980         8.5000       121.1254
    2076.60220         8.5000       123.7481
    2076.75460         8.5000       122.7077
    2076.90700         8.5000       121.4809
    2077.05940         8.5000       116.7943
    2077.21180         8.5000       116.1495
    2077.36420         8.5000       117.5654
    2077.51660         8.5000       116.6755
    2077.66900         8.5000       118.1818
    2077.82140         8.5000       115.0283
    2077.97380         8.5000       114.0410
    2078.12620         8.5000       114.4426
    2078.27860         8.5000       116.7533
    2078.43100         8.5000       120.5051
    2078.58340         8.5000       121.1545
    2078.73580         8.5000       121.0994
    2078.88820         8.5000       116.5176
    2079.04060         8.5000       116.3854
    2079.19300         8.5000       116.5714
    2079.34540         8.5000       116.7908
    2079.49780         8.5000       118.4174
    2079.65020         8.5000       116.1029
    2079.80260         8.5000       114.2697
    2079.95500         8.5000       116.5946
    2080.10740         8.5000       117.4587
    2080.25980         8.5000       119.4345
    2080.41220         8.5000       121.3122
    2080.56460         8.5000       121.5264
    2080.71700         8.5000       119.3869
    2080.86940         8.5000       115.7769
    2081.02180         8.5000       115.0316
    2081.17420         8.5000       111.7281
    2081.32660         8.5000       113.8897
    2081.47900         8.5000       113.2586
    2081.63140         8.5000       113.7395
    2081.78380         8.5000       118.6861
    2081.93620         8.5000       118.7317
    2082.08860         8.5000       123.1415
    2082.24100         8.5000       118.7728
    2082.39340         8.5000       118.5257
    2082.54580         8.5000       118.9581
    2082.69820         8.5000       116.3097
    2082.85060         8.5000       118.3147
    2083.00300         8.5000       116.9105
    2083.15540         8.5000       117.9726
    2083.30780         8.5000       118.5498
    2083.46020         8.5000       118.0865
    2083.61260         8.5000       114.6847
    2083.76500         8.5000       110.8157
    2083.91740         8.5000       114.1245
    2084.06980         8.5000       115.2499
    2084.22220         8.5000       123.8655
    2084.37460         8.5000       130.7940
    2084.52700         8.5000       129.6669
    2084.67940         8.5000       130.4108
    2084.83180         8.5000       127.3491
    2084.98420         8.5000       126.2903
