~Version Information Block
VERS .                 2.00:  CWLS LOG ASCII STANDARD - VERSION 2.00
WRAP .                   NO:  One line per depth step
~Well Information Block
#MNEM.UNIT        Data Type   Information
#---------- ----------------  -----------
STRT .M          1000.00000:  START DEPTH
STOP .M          3000.00000:  STOP DEPTH
STEP .M             0.15240:  STEP
NULL .              -999.25:  NULL VALUE
COMP .                     :  COMPANY
WELL .        WAR          :  WELL
FLD  .                     :  FIELD
LOC  .                     :  LOCATION
CTRY .                     :  COUNTRY
STAT .                     :  STATE
CNTY .                     :  COUNTY
SRVC .                     :  SERVICE COMPANY
DATE .                     :  DATE
API  .                     :  API NUMBER
UWI  .                     :  UNIQUE WELL ID
~Curve Information Block
#MNEM.UNIT         API CODE   Curve Description
#---------- ----------------  -----------------
DEPTH.M                    :  
BIT  .IN                   :  merged BS
DTS  .US/F                 :  DTSM_F(deeper) and DTSM merged
~Parameter Information Block
#MNEM.UNIT            Value   Description
#---------- ----------------  -----------
PROJECT.     Testgas@hotcepns02:  
SET  .          SPLICEDLOGS:  
~Other Information Block
# 
~A       DEPTH            BIT            DTS 
# ...
    1786.73740         8.5000       125.0900
    1786.88980         8.5000       126.7630
    1787.04220         8.5000       126.9261
    1787.19460         8.5000       128.8174
    1787.34700         8.5000       129.9090
    1787.49940         8.5000       127.6347
    1787.65180         8.5000       129.6078
    1787.80420         8.5000       129.4215
    1787.95660         8.5000       129.1395
    1788.10900         8.5000       131.0185
    1788.26140         8.5000       129.9412
    1788.41380         8.5000       130.0884
    1788.56620         8.5000       128.4126
    1788.71860         8.5000       126.6316
    1788.87100         8.5000       127.7219
    1789.02340         8.5000       128.2622
    1789.17580         8.5000       130.7742
    1789.32820         8.5000       134.7074
    1789.48060         8.5000       135.9821
    1789.63300         8.5000       138.8997
    1789.78540         8.5000       139.2253
    1789.93780         8.5000       140.7345
    1790.09020         8.5000       140.7886
    1790.24260         8.5000       136.9109
    1790.39500         8.5000       136.2341
    1790.54740         8.5000       130.0493
    1790.69980         8.5000       130.3458
    1790.85220         8.5000       129.6608
    1791.00460         8.5000       126.6130
    1791.15700         8.5000       127.3744
    1791.30940         8.5000       128.0080
    1791.46180         8.5000       127.4206
    1791.61420         8.5000       131.8958
    1791.76660         8.5000       133.7857
    1791.91900         8.5000       138.8253
    1792.07140         8.5000       143.0849
    1792.22380         8.5000       146.2914
    1792.37620         8.5000       147.8568
    1792.52860         8.5000       145.1171
    1792.68100         8.5000       147.9332
    1792.83340         8.5000       145.6621
    1792.98580         8.5000       143.4496
    1793.13820         8.5000       142.2139
    1793.29060         8.5000       139.9750
    1793.44300         8.5000       141.2870
    1793.59540         8.5000       144.0205
    1793.74780         8.5000       140.7260
    1793.90020         8.5000       144.3775
    1794.05260         8.5000       142.5738
    1794.20500         8.5000       141.7647
    1794.35740         8.5000       148.0468
    1794.50980         8.5000       162.0629
    1794.66220         8.5000       166.6268
    1794.81460         8.5000       166.6644
    1794.96700         8.5000       155.3014
    1795.11940         8.5000       150.4558
    1795.27180         8.5000       156.3350
    1795.42420         8.5000       158.4049
    1795.57660         8.5000       158.1457
    1795.72900         8.5000       156.0403
    1795.88140         8.5000       152.2731
    1796.03380         8.5000       150.8477
    1796.18620         8.5000       153.1809
    1796.33860         8.5000       153.0574
    1796.49100         8.5000       155.2830
    1796.64340         8.5000       153.7786
    1796.79580         8.5000       151.9464
    1796.94820         8.5000       149.2507
    1797.10060         8.5000       148.1491
    1797.25300         8.5000       148.7551
    1797.40540         8.5000       148.9774
    1797.55780         8.5000       150.3109
    1797.71020         8.5000       150.3119
    1797.86260         8.5000       148.4865
    1798.01500         8.5000       148.6052
    1798.16740         8.5000       146.8794
    1798.31980         8.5000       144.7704
    1798.47220         8.5000       142.5605
    1798.62460         8.5000       146.0181
    1798.77700         8.5000       145.5223
    1798.92940         8.5000       147.9054
    1799.08180         8.5000       145.4877
    1799.23420         8.5000       140.4852
    1799.38660         8.5000       139.6785
    1799.53900         8.5000       140.3333
    1799.69140         8.5000       145.9984
    1799.84380         8.5000       149.6853
    1799.99620         8.5000       152.2722
    1800.14860         8.5000       160.1610
    1800.30100         8.5000       160.7908
    1800.45340         8.5000       161.2352
    1800.60580         8.5000       160.1968
    1800.75820         8.5000       155.8998
    1800.91060         8.5000       160.1790
    1801.06300         8.5000       159.8903
    1801.21540         8.5000       161.1903
    1801.36780         8.5000       160.8498
    1801.52020         8.5000       162.0936
    1801.67260         8.5000       164.5941
    1801.82500         8.5000       163.7759
    1801.97740         8.5000       162.2571
    1802.12980         8.5000       159.9342
    1802.28220         8.5000       155.2110
    1802.43460         8.5000       157.0354
    1802.58700         8.5000       155.5658
    1802.73940         8.5000       154.5363
    1802.89180         8.5000       153.8146
    1803.04420         8.5000       153.3161
    1803.19660         8.5000       154.3045
    1803.34900         8.5000       153.8388
    1803.50140         8.5000       151.9441
    1803.65380         8.5000       149.0838
    1803.80620         8.5000       148.2258
    1803.95860         8.5000       149.9109
    1804.11100         8.5000       152.4423
    1804.26340         8.5000       150.9367
    1804.41580         8.5000       149.6535
    1804.56820         8.5000       147.7934
    1804.72060         8.5000       148.6337
    1804.87300         8.5000       150.2508
    1805.02540         8.5000       158.6651
    1805.17780         8.5000       161.5884
    1805.33020         8.5000       162.4330
    1805.48260         8.5000       162.1964
    1805.63500         8.5000       157.1884
    1805.78740         8.5000       156.7501
    1805.93980         8.5000       152.4079
    1806.09220         8.5000       150.2324
    1806.24460         8.5000       147.8897
    1806.39700         8.5000       147.7258
    1806.54940         8.5000       146.6073
    1806.70180         8.5000       145.9766
    1806.85420         8.5000       143.3214
    1807.00660         8.5000       140.5922
    1807.15900         8.5000       139.2723
    1807.31140         8.5000       137.3082
    1807.46380         8.5000       136.8952
    1807.61620         8.5000       139.3936
    1807.76860         8.5000       141.1454
    1807.92100         8.5000       144.7146
    1808.07340         8.5000       147.5870
    1808.22580         8.5000       146.4029
    1808.37820         8.5000       147.7854
    1808.53060         8.5000       149.5637
    1808.68300         8.5000       148.8737
    1808.83540         8.5000       151.9921
    1808.98780         8.5000       151.9896
    1809.14020         8.5000       153.0667
    1809.29260         8.5000       152.5312
    1809.44500         8.5000       153.5165
    1809.59740         8.5000       153.9691
    1809.74980         8.5000       156.4393
    1809.90220         8.5000       157.5685
    1810.05460         8.5000       157.3599
    1810.20700         8.5000       155.6961
    1810.35940         8.5000       153.0361
    1810.51180         8.5000       160.1992
    1810.66420         8.5000       162.6439
    1810.81660         8.5000       163.9194
    1810.96900         8.5000       161.2574
    1811.12140         8.5000       153.4898
    1811.27380         8.5000       153.8824
    1811.42620         8.5000       154.2409
    1811.57860         8.5000       153.3351
    1811.73100         8.5000       151.1658
    1811.88340         8.5000       153.6187
    1812.03580         8.5000       151.9813
    1812.18820         8.5000       152.2566
    1812.34060         8.5000       152.3653
    1812.49300         8.5000       149.7563
    1812.64540         8.5000       153.9003
    1812.79780         8.5000       157.1976
    1812.95020         8.5000       158.2608
    1813.10260         8.5000       158.2547
    1813.25500         8.5000       155.6220
    1813.40740         8.5000       155.0033
    1813.55980         8.5000       154.1159
    1813.71220         8.5000       153.8275
