~Version Information Block
VERS .                 2.00:  CWLS LOG ASCII STANDARD - VERSION 2.00
WRAP .                   NO:  One line per depth step
~Well Information Block
#MNEM.UNIT        Data Type   Information
#---------- ----------------  -----------
STRT .M          1000.00000:  START DEPTH
STOP .M          3000.00000:  STOP DEPTH
STEP .M             0.15240:  STEP
NULL .              -999.25:  NULL VALUE
COMP .                     :  COMPANY
WELL .        WAR          :  WELL
FLD  .                     :  FIELD
LOC  .                     :  LOCATION
CTRY .                     :  COUNTRY
STAT .                     :  STATE
CNTY .                     :  COUNTY
SRVC .                     :  SERVICE COMPANY
DATE .                     :  DATE
API  .                     :  API NUMBER
UWI  .                     :  UNIQUE WELL ID
~Curve Information Block
#MNEM.UNIT         API CODE   Curve Description
#---------- ----------------  -----------------
DEPTH.M                    :  
BIT  .IN                   :  merged BS
DTS  .US/F                 :  DTSM_F(deeper) and DTSM merged
~Parameter Information Block
#MNEM.UNIT            Value   Description
#---------- ----------------  -----------
PROJECT.     Testgas@hotcepns02:  
SET  .          SPLICEDLOGS:  
~Other Information Block
# 
~A       DEPTH            BIT            DTS 
# ...
    1406.95660         8.5000       172.0058
    1407.10900         8.5000       172.6850
    1407.26140         8.5000       176.9338
    1407.41380         8.5000       172.9764
    1407.56620         8.5000       162.1406
    1407.71860         8.5000       162.7999
    1407.87100         8.5000       162.7453
    1408.02340         8.5000       165.5647
    1408.17580         8.5000       171.8290
    1408.32820         8.5000       168.0744
    1408.48060         8.5000       165.2588
    1408.63300         8.5000       167.0774
    1408.78540         8.5000       166.5321
    1408.93780         8.5000       168.5184
    1409.09020         8.5000       168.2953
    1409.24260         8.5000       165.3208
    1409.39500         8.5000       168.9483
    1409.54740         8.5000       167.5313
    1409.69980         8.5000       163.2782
    1409.85220         8.5000       163.7519
    1410.00460         8.5000       161.8839
    1410.15700         8.5000       163.6570
    1410.30940         8.5000       163.7073
    1410.46180         8.5000       161.8117
    1410.61420         8.5000       161.7663
    1410.76660         8.5000       162.7119
    1410.91900         8.5000       163.9943
    1411.07140         8.5000       164.6073
    1411.22380         8.5000       162.5802
    1411.37620         8.5000       161.9271
    1411.52860         8.5000       160.8890
    1411.68100         8.5000       160.6088
    1411.83340         8.5000       162.4597
    1411.98580         8.5000       164.9839
    1412.13820         8.5000       170.8218
    1412.29060         8.5000       173.1509
    1412.44300         8.5000       173.5407
    1412.59540         8.5000       172.4928
    1412.74780         8.5000       169.1245
    1412.90020         8.5000       168.3298
    1413.05260         8.5000       169.2093
    1413.20500         8.5000       171.8293
    1413.35740         8.5000       171.9358
    1413.50980         8.5000       171.8718
    1413.66220         8.5000       171.7617
    1413.81460         8.5000       168.9914
    1413.96700         8.5000       168.2378
    1414.11940         8.5000       165.7216
    1414.27180         8.5000       164.1351
    1414.42420         8.5000       162.0158
    1414.57660         8.5000       159.8929
    1414.72900         8.5000       159.9890
    1414.88140         8.5000       162.3982
    1415.03380         8.5000       166.1322
    1415.18620         8.5000       172.2600
    1415.33860         8.5000       176.1702
    1415.49100         8.5000       176.0663
    1415.64340         8.5000       174.3837
    1415.79580         8.5000       172.7472
    1415.94820         8.5000       169.6827
    1416.10060         8.5000       166.3426
    1416.25300         8.5000       168.5570
    1416.40540         8.5000       169.6346
    1416.55780         8.5000       172.0119
    1416.71020         8.5000       166.6224
    1416.86260         8.5000       162.7957
    1417.01500         8.5000       162.8319
    1417.16740         8.5000       164.8779
    1417.31980         8.5000       164.2579
    1417.47220         8.5000       161.5240
    1417.62460         8.5000       165.0577
    1417.77700         8.5000       168.2778
    1417.92940         8.5000       173.7085
    1418.08180         8.5000       174.5298
    1418.23420         8.5000       170.6370
    1418.38660         8.5000       172.4013
    1418.53900         8.5000       168.8771
    1418.69140         8.5000       164.7455
    1418.84380         8.5000       160.3753
    1418.99620         8.5000       157.9865
    1419.14860         8.5000       159.7956
    1419.30100         8.5000       160.3378
    1419.45340         8.5000       159.9114
    1419.60580         8.5000       157.3060
    1419.75820         8.5000       154.7271
    1419.91060         8.5000       153.9806
    1420.06300         8.5000       151.6304
    1420.21540         8.5000       152.5878
    1420.36780         8.5000       155.4746
    1420.52020         8.5000       158.5402
    1420.67260         8.5000       154.7144
    1420.82500         8.5000       148.9881
    1420.97740         8.5000       147.8406
    1421.12980         8.5000       148.1454
    1421.28220         8.5000       149.5511
    1421.43460         8.5000       150.8558
    1421.58700         8.5000       152.4640
    1421.73940         8.5000       152.7634
    1421.89180         8.5000       151.6876
    1422.04420         8.5000       151.0171
    1422.19660         8.5000       151.9474
    1422.34900         8.5000       154.9313
    1422.50140         8.5000       160.7854
    1422.65380         8.5000       163.3495
    1422.80620         8.5000       163.8796
    1422.95860         8.5000       162.7248
    1423.11100         8.5000       161.6399
    1423.26340         8.5000       160.7477
    1423.41580         8.5000       163.5127
    1423.56820         8.5000       168.9692
    1423.72060         8.5000       170.2029
    1423.87300         8.5000       168.5212
    1424.02540         8.5000       163.9201
    1424.17780         8.5000       160.0048
    1424.33020         8.5000       154.6985
    1424.48260         8.5000       153.1270
    1424.63500         8.5000       153.7286
    1424.78740         8.5000       158.6159
    1424.93980         8.5000       160.2111
    1425.09220         8.5000       158.6023
    1425.24460         8.5000       159.9494
    1425.39700         8.5000       161.5256
    1425.54940         8.5000       165.3236
    1425.70180         8.5000       168.1471
    1425.85420         8.5000       168.9845
    1426.00660         8.5000       166.7210
    1426.15900         8.5000       165.7834
    1426.31140         8.5000       165.7444
    1426.46380         8.5000       165.3216
    1426.61620         8.5000       166.4404
    1426.76860         8.5000       170.1125
    1426.92100         8.5000       171.8371
    1427.07340         8.5000       171.4717
    1427.22580         8.5000       168.6547
    1427.37820         8.5000       164.7572
    1427.53060         8.5000       162.6929
    1427.68300         8.5000       162.4884
    1427.83540         8.5000       161.8070
    1427.98780         8.5000       162.1425
    1428.14020         8.5000       164.0054
    1428.29260         8.5000       165.1159
    1428.44500         8.5000       165.5257
    1428.59740         8.5000       165.5557
    1428.74980         8.5000       165.7338
    1428.90220         8.5000       165.8550
    1429.05460         8.5000       165.9922
    1429.20700         8.5000       165.6116
    1429.35940         8.5000       169.5092
    1429.51180         8.5000       172.7992
    1429.66420         8.5000       171.3732
    1429.81660         8.5000       165.3812
    1429.96900         8.5000       159.6483
    1430.12140         8.5000       155.9502
    1430.27380         8.5000       156.7914
    1430.42620         8.5000       158.1895
    1430.57860         8.5000       156.7400
    1430.73100         8.5000       154.9982
    1430.88340         8.5000       153.8722
    1431.03580         8.5000       157.9077
    1431.18820         8.5000       160.3616
    1431.34060         8.5000       160.4763
    1431.49300         8.5000       159.8404
    1431.64540         8.5000       159.8242
    1431.79780         8.5000       161.4597
    1431.95020         8.5000       164.7798
    1432.10260         8.5000       169.9957
    1432.25500         8.5000       170.5659
    1432.40740         8.5000       172.2309
    1432.55980         8.5000       170.1569
    1432.71220         8.5000       161.0281
    1432.86460         8.5000       152.9482
    1433.01700         8.5000       151.0403
    1433.16940         8.5000       153.2634
    1433.32180         8.5000       160.8199
    1433.47420         8.5000       164.2347
    1433.62660         8.5000       161.7148
    1433.77900         8.5000       159.7677
    1433.93140         8.5000       159.1852
