~Version Information Block
VERS .                 2.00:  CWLS LOG ASCII STANDARD - VERSION 2.00
WRAP .                   NO:  One line per depth step
~Well Information Block
#MNEM.UNIT        Data Type   Information
#---------- ----------------  -----------
STRT .M          1000.00000:  START DEPTH
STOP .M          3000.00000:  STOP DEPTH
STEP .M             0.15240:  STEP
NULL .              -999.25:  NULL VALUE
COMP .                     :  COMPANY
WELL .        WAR          :  WELL
FLD  .                     :  FIELD
LOC  .                     :  LOCATION
CTRY .                     :  COUNTRY
STAT .                     :  STATE
CNTY .                     :  COUNTY
SRVC .                     :  SERVICE COMPANY
DATE .                     :  DATE
API  .                     :  API NUMBER
UWI  .                     :  UNIQUE WELL ID
~Curve Information Block
#MNEM.UNIT         API CODE   Curve Description
#---------- ----------------  -----------------
DEPTH.M                    :  
BIT  .IN                   :  merged BS
DTS  .US/F                 :  DTSM_F(deeper) and DTSM merged
~Parameter Information Block
#MNEM.UNIT            Value   Description
#---------- ----------------  -----------
PROJECT.     Testgas@hotcepns02:  
SET  .          SPLICEDLOGS:  
~Other Information Block
# 
~A       DEPTH            BIT            DTS 
    1000.04860        12.2500       171.4630
    1000.20100        12.2500       171.4158
    1000.35340        12.2500       171.0675
    1000.50580        12.2500       170.7829
    1000.65820        12.2500       171.1491
    1000.81060        12.2500       170.9883
    1000.96300        12.2500       171.0011
    1001.11540        12.2500       170.6757
    1001.26780        12.2500       170.9742
    1001.42020        12.2500       171.1996
    1001.57260        12.2500       171.1994
    1001.72500        12.2500       171.2201
    1001.87740        12.2500       170.6831
    1002.02980        12.2500       170.7538
    1002.18220        12.2500       170.6433
    1002.33460        12.2500       170.9925
    1002.48700        12.2500       171.4733
    1002.63940        12.2500       171.3476
    1002.79180        12.2500       170.9673
    1002.94420        12.2500       170.4814
    1003.09660        12.2500       170.6901
    1003.24900        12.2500       171.0716
    1003.40140        12.2500       170.9320
    1003.55380        12.2500       171.0439
    1003.70620        12.2500       171.0522
    1003.85860        12.2500       171.1377
    1004.01100        12.2500       170.7599
    1004.16340        12.2500       170.3955
    1004.31580        12.2500       170.1498
    1004.46820        12.2500       170.0575
    1004.62060        12.2500       170.1202
    1004.77300        12.2500       169.9867
    1004.92540        12.2500       169.7760
    1005.07780        12.2500       169.5189
    1005.23020        12.2500       169.5993
    1005.38260        12.2500       170.2474
    1005.53500        12.2500       170.4952
    1005.68740        12.2500       170.2196
    1005.83980        12.2500       169.8274
    1005.99220        12.2500       169.5792
    1006.14460        12.2500       169.7657
    1006.29700        12.2500       169.9816
    1006.44940        12.2500       169.8980
    1006.60180        12.2500       170.3709
    1006.75420        12.2500       170.7867
    1006.90660        12.2500       170.6446
    1007.05900        12.2500       169.6605
    1007.21140        12.2500       169.7829
    1007.36380        12.2500       170.2455
    1007.51620        12.2500       170.8408
    1007.66860        12.2500       171.5001
    1007.82100        12.2500       171.2405
    1007.97340        12.2500       171.4532
    1008.12580        12.2500       171.3470
    1008.27820        12.2500       171.2904
    1008.43060        12.2500       171.1571
    1008.58300        12.2500       170.6838
    1008.73540        12.2500       170.5432
    1008.88780        12.2500       171.0406
    1009.04020        12.2500       171.4862
    1009.19260        12.2500       171.5064
    1009.34500        12.2500       171.2949
    1009.49740        12.2500       170.9129
    1009.64980        12.2500       170.9169
    1009.80220        12.2500       171.3050
    1009.95460        12.2500       171.4628
    1010.10700        12.2500       171.4547
    1010.25940        12.2500       171.2363
    1010.41180        12.2500       170.9169
    1010.56420        12.2500       171.2410
    1010.71660        12.2500       171.2545
    1010.86900        12.2500       171.1125
    1011.02140        12.2500       171.1040
    1011.17380        12.2500       171.1431
    1011.32620        12.2500       171.4917
    1011.47860        12.2500       171.8700
    1011.63100        12.2500       171.6513
    1011.78340        12.2500       171.5819
    1011.93580        12.2500       171.1159
    1012.08820        12.2500       171.2510
    1012.24060        12.2500       171.3607
    1012.39300        12.2500       171.8216
    1012.54540        12.2500       171.9743
    1012.69780        12.2500       171.7247
    1012.85020        12.2500       171.8554
    1013.00260        12.2500       171.6409
    1013.15500        12.2500       171.9500
    1013.30740        12.2500       171.9460
    1013.45980        12.2500       171.7226
    1013.61220        12.2500       171.3683
    1013.76460        12.2500       171.4531
    1013.91700        12.2500       171.6478
    1014.06940        12.2500       171.8905
    1014.22180        12.2500       171.9508
    1014.37420        12.2500       171.4823
    1014.52660        12.2500       171.6399
    1014.67900        12.2500       171.7100
    1014.83140        12.2500       171.8980
    1014.98380        12.2500       171.8313
    1015.13620        12.2500       171.2618
    1015.28860        12.2500       171.2094
    1015.44100        12.2500       171.1188
    1015.59340        12.2500       171.4123
    1015.74580        12.2500       171.7122
    1015.89820        12.2500       171.9741
    1016.05060        12.2500       171.8246
    1016.20300        12.2500       171.2495
    1016.35540        12.2500       171.4298
    1016.50780        12.2500       171.6971
    1016.66020        12.2500       171.8915
    1016.81260        12.2500       172.0232
    1016.96500        12.2500       171.8750
    1017.11740        12.2500       171.6817
    1017.26980        12.2500       172.0699
    1017.42220        12.2500       171.9439
    1017.57460        12.2500       171.6537
    1017.72700        12.2500       171.2527
    1017.87940        12.2500       171.4742
    1018.03180        12.2500       171.9742
    1018.18420        12.2500       172.1398
    1018.33660        12.2500       171.8240
    1018.48900        12.2500       171.5954
    1018.64140        12.2500       171.5772
    1018.79380        12.2500       171.5789
    1018.94620        12.2500       171.9051
    1019.09860        12.2500       171.5634
    1019.25100        12.2500       171.3870
    1019.40340        12.2500       171.6162
    1019.55580        12.2500       171.8367
    1019.70820        12.2500       171.8200
    1019.86060        12.2500       171.8475
    1020.01300        12.2500       171.3844
    1020.16540        12.2500       171.3867
    1020.31780        12.2500       171.4638
    1020.47020        12.2500       171.4770
    1020.62260        12.2500       171.6978
    1020.77500        12.2500       171.9010
    1020.92740        12.2500       171.5961
    1021.07980        12.2500       171.8188
    1021.23220        12.2500       171.9340
    1021.38460        12.2500       171.9170
    1021.53700        12.2500       171.8265
    1021.68940        12.2500       171.9200
    1021.84180        12.2500       171.8481
    1021.99420        12.2500       171.8011
    1022.14660        12.2500       171.3426
    1022.29900        12.2500       171.3196
    1022.45140        12.2500       171.4262
    1022.60380        12.2500       171.6705
    1022.75620        12.2500       172.0012
    1022.90860        12.2500       172.0073
    1023.06100        12.2500       171.9289
    1023.21340        12.2500       171.8366
    1023.36580        12.2500       171.7970
    1023.51820        12.2500       171.6720
    1023.67060        12.2500       171.6804
    1023.82300        12.2500       172.2299
    1023.97540        12.2500       172.3156
    1024.12780        12.2500       172.3100
    1024.28020        12.2500       171.7313
    1024.43260        12.2500       171.0519
    1024.58500        12.2500       170.7965
    1024.73740        12.2500       171.8452
    1024.88980        12.2500       172.3635
    1025.04220        12.2500       172.3091
    1025.19460        12.2500       172.3076
    1025.34700        12.2500       171.4886
    1025.49940        12.2500       171.5591
    1025.65180        12.2500       171.6815
    1025.80420        12.2500       171.8315
    1025.95660        12.2500       171.4587
    1026.10900        12.2500       171.9668
    1026.26140        12.2500       172.1162
    1026.41380        12.2500       172.3111
    1026.56620        12.2500       172.1432
    1026.71860        12.2500       171.9809
    1026.87100        12.2500       171.9536
    1027.02340        12.2500       171.8096
