~Version Information Block
VERS .                 2.00:  CWLS LOG ASCII STANDARD - VERSION 2.00
WRAP .                   NO:  One line per depth step
~Well Information Block
#MNEM.UNIT        Data Type   Information
#---------- ----------------  -----------
STRT .M          1000.00000:  START DEPTH
STOP .M          3000.00000:  STOP DEPTH
STEP .M             0.15240:  STEP
NULL .              -999.25:  NULL VALUE
COMP .                     :  COMPANY
WELL .        WAR          :  WELL
FLD  .                     :  FIELD
LOC  .                     :  LOCATION
CTRY .                     :  COUNTRY
STAT .                     :  STATE
CNTY .                     :  COUNTY
SRVC .                     :  SERVICE COMPANY
DATE .                     :  DATE
API  .                     :  API NUMBER
UWI  .                     :  UNIQUE WELL ID
~Curve Information Block
#MNEM.UNIT         API CODE   Curve Description
#---------- ----------------  -----------------
DEPTH.M                    :  
BIT  .IN                   :  merged BS
DTS  .US/F                 :  DTSM_F(deeper) and DTSM merged
~Parameter Information Block
#MNEM.UNIT            Value   Description
#---------- ----------------  -----------
PROJECT.     Testgas@hotcepns02:  
SET  .          SPLICEDLOGS:  
~Other Information Block
# 
~A       DEPTH            BIT            DTS 
# ...
    2844.69820         8.5000       118.0548
    2844.85060         8.5000       118.3178
    2845.00300         8.5000       118.4156
    2845.15540         8.5000       118.3049
    2845.30780         8.5000       118.4118
    2845.46020         8.5000       118.4457
    2845.61260         8.5000       118.9403
    2845.76500         8.5000       119.6608
    2845.91740         8.5000       120.3987
    2846.06980         8.5000       121.1492
    2846.22220         8.5000       121.8284
    2846.37460         8.5000       122.3128
    2846.52700         8.5000       122.6755
    2846.67940         8.5000       122.8331
    2846.83180         8.5000       122.2208
    2846.98420         8.5000       121.5569
    2847.13660         8.5000       120.7275
    2847.28900         8.5000       119.8503
    2847.44140         8.5000       119.1562
    2847.59380         8.5000       118.5814
    2847.74620         8.5000       118.9165
    2847.89860         8.5000       119.6951
    2848.05100         8.5000       119.9539
    2848.20340         8.5000       120.6615
    2848.35580         8.5000       122.1301
    2848.50820         8.5000       123.6365
    2848.66060         8.5000       124.3436
    2848.81300         8.5000       124.3151
    2848.96540         8.5000       123.9897
    2849.11780         8.5000       123.7686
    2849.27020         8.5000       123.8017
    2849.42260         8.5000       124.0560
    2849.57500         8.5000       124.3495
    2849.72740         8.5000       124.4812
    2849.87980         8.5000       124.3663
    2850.03220         8.5000       124.1602
    2850.18460         8.5000       123.9415
    2850.33700         8.5000       123.8306
    2850.48940         8.5000       123.4380
    2850.64180         8.5000       123.1524
    2850.79420         8.5000       123.6684
    2850.94660         8.5000       124.3708
    2851.09900         8.5000       124.8534
    2851.25140         8.5000       124.7253
    2851.40380         8.5000       124.6970
    2851.55620         8.5000       124.4767
    2851.70860         8.5000       124.1006
    2851.86100         8.5000       123.6930
    2852.01340         8.5000       123.4647
    2852.16580         8.5000       123.2247
    2852.31820         8.5000       123.3088
    2852.47060         8.5000       123.5181
    2852.62300         8.5000       123.7504
    2852.77540         8.5000       123.9990
    2852.92780         8.5000       124.3613
    2853.08020         8.5000       125.0026
    2853.23260         8.5000       124.7987
    2853.38500         8.5000       123.5397
    2853.53740         8.5000       122.4857
    2853.68980         8.5000       122.0799
    2853.84220         8.5000       121.9738
    2853.99460         8.5000       121.6527
    2854.14700         8.5000       121.2141
    2854.29940         8.5000       120.8114
    2854.45180         8.5000       120.3501
    2854.60420         8.5000       119.8210
    2854.75660         8.5000       119.2439
    2854.90900         8.5000       118.7523
    2855.06140         8.5000       118.5322
    2855.21380         8.5000       118.5999
    2855.36620         8.5000       118.9945
    2855.51860         8.5000       120.0448
    2855.67100         8.5000       121.2984
    2855.82340         8.5000       122.2200
    2855.97580         8.5000       122.0417
    2856.12820         8.5000       120.4317
    2856.28060         8.5000       118.2443
    2856.43300         8.5000       116.4949
    2856.58540         8.5000       115.6581
    2856.73780         8.5000       115.3554
    2856.89020         8.5000       115.0481
    2857.04260         8.5000       114.5362
    2857.19500         8.5000       114.4701
    2857.34740         8.5000       114.8345
    2857.49980         8.5000       115.2637
    2857.65220         8.5000       115.2502
    2857.80460         8.5000       115.6445
    2857.95700         8.5000       116.3341
    2858.10940         8.5000       116.9427
    2858.26180         8.5000       116.7558
    2858.41420         8.5000       116.1874
    2858.56660         8.5000       116.0075
    2858.71900         8.5000       116.5551
    2858.87140         8.5000       117.2814
    2859.02380         8.5000       117.2530
    2859.17620         8.5000       116.5684
    2859.32860         8.5000       116.0838
    2859.48100         8.5000       116.2182
    2859.63340         8.5000       116.4057
    2859.78580         8.5000       116.2756
    2859.93820         8.5000       116.0618
    2860.09060         8.5000       116.2629
    2860.24300         8.5000       116.0121
    2860.39540         8.5000       115.4541
    2860.54780         8.5000       113.9993
    2860.70020         8.5000       113.0325
    2860.85260         8.5000       113.1484
    2861.00500         8.5000       114.2997
    2861.15740         8.5000       115.5857
    2861.30980         8.5000       115.8240
    2861.46220         8.5000       115.1176
    2861.61460         8.5000       114.3614
    2861.76700         8.5000       114.2232
    2861.91940         8.5000       114.2850
    2862.07180         8.5000       114.2212
    2862.22420         8.5000       114.0695
    2862.37660         8.5000       114.1055
    2862.52900         8.5000       114.5958
    2862.68140         8.5000       115.1759
    2862.83380         8.5000       115.4515
    2862.98620         8.5000       115.3836
    2863.13860         8.5000       115.1428
    2863.29100         8.5000       114.9437
    2863.44340         8.5000       114.7670
    2863.59580         8.5000       114.7448
    2863.74820         8.5000       114.8033
    2863.90060         8.5000       114.8480
    2864.05300         8.5000       115.1522
    2864.20540         8.5000       115.6811
    2864.35780         8.5000       116.2933
    2864.51020         8.5000       116.7281
    2864.66260         8.5000       116.9521
    2864.81500         8.5000       117.0329
    2864.96740         8.5000       116.8286
    2865.11980         8.5000       116.3920
    2865.27220         8.5000       115.9916
    2865.42460         8.5000       115.7751
    2865.57700         8.5000       115.8070
    2865.72940         8.5000       115.9619
    2865.88180         8.5000       116.1182
    2866.03420         8.5000       116.1542
    2866.18660         8.5000       116.0192
    2866.33900         8.5000       115.7253
    2866.49140         8.5000       115.4445
    2866.64380         8.5000       115.4203
    2866.79620         8.5000       115.6263
    2866.94860         8.5000       115.8572
    2867.10100         8.5000       115.6591
    2867.25340         8.5000       115.2058
    2867.40580         8.5000       114.3626
    2867.55820         8.5000       113.8384
    2867.71060         8.5000       113.5951
    2867.86300         8.5000       114.0341
    2868.01540         8.5000       114.5874
    2868.16780         8.5000       115.0467
    2868.32020         8.5000       115.1766
    2868.47260         8.5000       115.2117
    2868.62500         8.5000       115.3449
    2868.77740         8.5000       115.5891
    2868.92980         8.5000       115.7303
    2869.08220         8.5000       115.7733
    2869.23460         8.5000       116.0725
    2869.38700         8.5000       116.5576
    2869.53940         8.5000       116.9137
    2869.69180         8.5000       116.5426
    2869.84420         8.5000       115.7229
    2869.99660         8.5000       115.2874
    2870.14900         8.5000       115.7455
    2870.30140         8.5000       116.7088
    2870.45380         8.5000       117.4727
    2870.60620         8.5000       117.8126
    2870.75860         8.5000       117.9457
    2870.91100         8.5000       118.0012
    2871.06340         8.5000       118.0193
    2871.21580         8.5000       117.9742
    2871.36820         8.5000       117.8337
    2871.52060         8.5000       117.6395
    2871.67300         8.5000       117.4405
