~Version Information Block
VERS .                 2.00:  CWLS LOG ASCII STANDARD - VERSION 2.00
WRAP .                   NO:  One line per depth step
~Well Information Block
#MNEM.UNIT        Data Type   Information
#---------- ----------------  -----------
STRT .M          1000.00000:  START DEPTH
STOP .M          3000.00000:  STOP DEPTH
STEP .M             0.15240:  STEP
NULL .              -999.25:  NULL VALUE
COMP .                     :  COMPANY
WELL .        WAR          :  WELL
FLD  .                     :  FIELD
LOC  .                     :  LOCATION
CTRY .                     :  COUNTRY
STAT .                     :  STATE
CNTY .                     :  COUNTY
SRVC .                     :  SERVICE COMPANY
DATE .                     :  DATE
API  .                     :  API NUMBER
UWI  .                     :  UNIQUE WELL ID
~Curve Information Block
#MNEM.UNIT         API CODE   Curve Description
#---------- ----------------  -----------------
DEPTH.M                    :  
BIT  .IN                   :  merged BS
DTS  .US/F                 :  DTSM_F(deeper) and DTSM merged
~Parameter Information Block
#MNEM.UNIT            Value   Description
#---------- ----------------  -----------
PROJECT.     Testgas@hotcepns02:  
SET  .          SPLICEDLOGS:  
~Other Information Block
# 
~A       DEPTH            BIT            DTS 
# ...
    2980.33420         8.5000       115.1151
    2980.48660         8.5000       115.3886
    2980.63900         8.5000       115.4171
    2980.79140         8.5000       115.4954
    2980.94380         8.5000       115.6443
    2981.09620         8.5000       115.7484
    2981.24860         8.5000       115.8312
    2981.40100         8.5000       115.9200
    2981.55340         8.5000       115.8101
    2981.70580         8.5000       115.4304
    2981.85820         8.5000       114.9278
    2982.01060         8.5000       114.9055
    2982.16300         8.5000       115.3068
    2982.31540         8.5000       115.7369
    2982.46780         8.5000       115.3700
    2982.62020         8.5000       114.8381
    2982.77260         8.5000       114.7525
    2982.92500         8.5000       115.1448
    2983.07740         8.5000       115.3929
    2983.22980         8.5000       115.4643
    2983.38220         8.5000       115.4542
    2983.53460         8.5000       115.1688
    2983.68700         8.5000       114.6847
    2983.83940         8.5000       114.5031
    2983.99180         8.5000       114.8015
    2984.14420         8.5000       115.2822
    2984.29660         8.5000       115.6587
    2984.44900         8.5000       116.0583
    2984.60140         8.5000       116.2764
    2984.75380         8.5000       116.1335
    2984.90620         8.5000       115.2568
    2985.05860         8.5000       114.1705
    2985.21100         8.5000       113.7343
    2985.36340         8.5000       114.0996
    2985.51580         8.5000       114.7744
    2985.66820         8.5000       115.0816
    2985.82060         8.5000       115.2708
    2985.97300         8.5000       115.5520
    2986.12540         8.5000       115.7290
    2986.27780         8.5000       115.4962
    2986.43020         8.5000       115.2456
    2986.58260         8.5000       115.5518
    2986.73500         8.5000       116.0588
    2986.88740         8.5000       116.1776
    2987.03980         8.5000       116.0483
    2987.19220         8.5000       115.7608
    2987.34460         8.5000       115.7007
    2987.49700         8.5000       115.7528
    2987.64940         8.5000       115.8699
    2987.80180         8.5000       116.0607
    2987.95420         8.5000       116.3472
    2988.10660         8.5000       116.6358
    2988.25900         8.5000       116.8374
    2988.41140         8.5000       116.9461
    2988.56380         8.5000       116.9886
    2988.71620         8.5000       116.9836
    2988.86860         8.5000       117.2427
    2989.02100         8.5000       117.8448
    2989.17340         8.5000       118.5741
    2989.32580         8.5000       119.3819
    2989.47820         8.5000       119.5443
    2989.63060         8.5000       119.1463
    2989.78300         8.5000       118.2873
    2989.93540         8.5000       117.0711
    2990.08780         8.5000       115.8958
    2990.24020         8.5000       115.4306
    2990.39260         8.5000       115.6605
    2990.54500         8.5000       115.9574
    2990.69740         8.5000       116.1497
    2990.84980         8.5000       116.2301
    2991.00220         8.5000       116.0402
    2991.15460         8.5000       116.0207
    2991.30700         8.5000       116.3572
    2991.45940         8.5000       116.8296
    2991.61180         8.5000       117.1525
    2991.76420         8.5000       117.0524
    2991.91660         8.5000       116.5655
    2992.06900         8.5000       116.0453
    2992.22140         8.5000       115.8201
    2992.37380         8.5000       115.8666
    2992.52620         8.5000       115.9820
    2992.67860         8.5000       116.1227
    2992.83100         8.5000       116.1597
    2992.98340         8.5000       116.1505
    2993.13580         8.5000       116.3099
    2993.28820         8.5000       116.5074
    2993.44060         8.5000       116.5885
    2993.59300         8.5000       116.1521
    2993.74540         8.5000       115.3717
    2993.89780         8.5000       114.9717
    2994.05020         8.5000       115.1145
    2994.20260         8.5000       115.5961
    2994.35500         8.5000       115.6611
    2994.50740         8.5000       115.6625
    2994.65980         8.5000       115.9840
    2994.81220         8.5000       116.3108
    2994.96460         8.5000       116.1707
    2995.11700         8.5000       115.3595
    2995.26940         8.5000       114.5877
    2995.42180         8.5000       113.9257
    2995.57420         8.5000       113.2737
    2995.72660         8.5000       112.3571
    2995.87900         8.5000       112.0752
    2996.03140         8.5000       112.7138
    2996.18380         8.5000       114.1130
    2996.33620         8.5000       115.1551
    2996.48860         8.5000       115.4230
    2996.64100         8.5000       115.1886
    2996.79340         8.5000       114.9695
    2996.94580         8.5000       114.9254
    2997.09820         8.5000       115.5289
    2997.25060         8.5000       116.4664
    2997.40300         8.5000       117.2932
    2997.55540         8.5000       117.5575
    2997.70780         8.5000       116.9294
    2997.86020         8.5000       115.5025
    2998.01260         8.5000       113.4955
    2998.16500         8.5000       111.7209
    2998.31740         8.5000       111.3414
    2998.46980         8.5000       112.3134
    2998.62220         8.5000       113.8086
    2998.77460         8.5000       114.8087
    2998.92700         8.5000       114.9412
    2999.07940         8.5000       114.7421
    2999.23180         8.5000       114.5844
    2999.38420         8.5000       114.5856
    2999.53660         8.5000       114.5972
    2999.68900         8.5000       114.8884
    2999.84140         8.5000       115.3776
    2999.99380         8.5000       115.9011
    3000.14620         8.5000       116.1646
    3000.29860         8.5000       116.2806
    3000.45100         8.5000       116.4981
    3000.60340         8.5000       116.6823
    3000.75580         8.5000       116.5521
    3000.90820         8.5000       116.0207
